API_WellNo,FileNumber,Operator,WellName,County,Pool_Nm,PoolCompDate,Date_Treat,Top_,Bot,Frac_Acid,Units,Vol,Lbs_Prop,Acid_Con,MTPress,MTRate_N,Stages,Wh_Lat,Wh_Long
33061045350000,36757,"KRAKEN DEVELOPMENT III, LLC",ARROW A 15-22 #4TFH,MOUNTRAIL,BAKKEN,12/2/2019,10/30/2019,10345,19174,SAND,Bbl,260459,15315380,NULL,9229,83.3,60,48.16883444,-102.4868411
33061045340000,36756,"KRAKEN DEVELOPMENT III, LLC",ETHAN 15-22 #3TFH,MOUNTRAIL,BAKKEN,12/2/2019,10/21/2019,10340,20459,SAND,Bbl,261965,15249600,NULL,9249,82.8,60,48.16883463,-102.4869764
33061045330000,36755,"KRAKEN DEVELOPMENT III, LLC",PENNY 15-22 #2TFH,MOUNTRAIL,BAKKEN,12/2/2019,10/21/2019,10400,20519,SAND,Bbl,262424,15256965,NULL,9284,84.9,60,48.16883481,-102.4871118
33061045320000,36754,"KRAKEN DEVELOPMENT III, LLC",CANDACE 15-22 #1TFH,MOUNTRAIL,BAKKEN,12/3/2019,10/21/2019,1020,20606,SAND,Bbl,262576,15249510,NULL,9383,81.5,60,48.168835,-102.4872471
33105052440000,36652,"KRAKEN OPERATING, LLC",RED 22-15 #1H,WILLIAMS,BAKKEN,10/24/2019,9/16/2019,9949,20115,SAND,Bbl,211730,10154328,NULL,9443,93.7,60,48.5741781,-103.452953
33105052430000,36651,"KRAKEN OPERATING, LLC",WHITE 23-14 #1H,WILLIAMS,BAKKEN,10/22/2019,9/16/2019,10073,20356,SAND,Bbl,209945,10154330,NULL,9249,83.2,60,48.57417782,-103.4528166
33105052420000,36650,"KRAKEN OPERATING, LLC",BLUE 26-35 #1TFH,WILLIAMS,BAKKEN,10/24/2019,9/16/2019,10148,20491,SAND,Bbl,209127,10154550,NULL,9172,84.1,60,48.57417754,-103.4526802
33105052320000,36632,"KRAKEN OPERATING, LLC",STEVENSON-GARNER LE 31-30  #1H,WILLIAMS,BAKKEN,10/8/2019,8/20/2019,10576,20722,SAND,Bbl,205015,10154398,NULL,9308,94.8,60,48.45864403,-103.3868948
33053091010000,36599,WHITING OIL AND GAS CORPORATION,ERICKSON 14-23-2H,MCKENZIE,BAKKEN,11/26/2019,9/17/2019,11945,21622,ACID,Bbl,535,NULL,15,9000,5.6,1,47.96114587,-103.8255709
33053091010000,36599,WHITING OIL AND GAS CORPORATION,ERICKSON 14-23-2H,MCKENZIE,BAKKEN,11/26/2019,10/12/2019,11945,21622,SAND,Bbl,133752,6405943,15,9027,55.5,39,47.96114587,-103.8255709
33053091000000,36598,WHITING OIL AND GAS CORPORATION,ERICKSON 14-23-3H,MCKENZIE,BAKKEN,11/24/2019,10/14/2019,11486,21495,SAND,Bbl,140217,7966733,15,9126,56.2,40,47.96107664,-103.8254158
33053090990000,36597,WHITING OIL AND GAS CORPORATION,ERICKSON 44-35HU,MCKENZIE,BAKKEN,11/23/2019,10/14/2019,11427,NULL,SAND,Bbl,119544,6999984,15,9024,56.5,34,47.96100743,-103.8252649
33061045070000,36559,WHITING OIL AND GAS CORPORATION,FLADELAND 14-26HU,MOUNTRAIL,BAKKEN,10/22/2019,9/26/2019,10264,19209,SAND,Bbl,201416,8723160,NULL,8903,61.6,35,48.03892055,-102.3523635
33053090920000,36558,"PEREGRINE PETROLEUM PARTNERS, LTD",LARSON 15-10 1H,MCKENZIE,BAKKEN,9/7/2019,8/28/2019,11090,20826,SAND,Bbl,160828,4980543,15,8926,52,25,47.46018981,-103.6519258
33061045060000,36546,WHITING OIL AND GAS CORPORATION,HAUGE 44-36HU,MOUNTRAIL,BAKKEN,9/27/2019,9/2/2019,10122,19442,SAND,Bbl,205007,9030980,NULL,9222,62.1,37,48.02389883,-102.3120827
33061045050000,36545,WHITING OIL AND GAS CORPORATION,HAUGE  44-36-2HU,MOUNTRAIL,BAKKEN,10/10/2019,9/5/2019,10090,24359,SAND,Bbl,318973,10496290,NULL,9160,65.2,56,48.02389733,-102.3118372
33023014400000,36501,"KODA RESOURCES OPERATING, LLC",STOUT  2932-2TH,DIVIDE,BAKKEN,9/19/2019,8/28/2019,9339,19019,SAND,Bbl,202356,14482520,NULL,8774,77,69,48.66204262,-103.9039902
33023014390000,36500,"KODA RESOURCES OPERATING, LLC",STOUT  2917-1BH,DIVIDE,BAKKEN,9/18/2019,8/28/2019,9312,19111,SAND,Bbl,208718,14692768,NULL,8960,79,70,48.66204322,-103.9041558
33053090710000,36495,WHITING OIL AND GAS CORPORATION,IRWIN  41-25-2H,MCKENZIE,BAKKEN,10/25/2019,9/27/2019,11710,20184,SAND,Bbl,154301,7019220,15,9016,55.9,34,47.78909857,-103.8016718
33053090700000,36494,WHITING OIL AND GAS CORPORATION,IRWIN  41-25H,MCKENZIE,BAKKEN,10/24/2019,9/28/2019,11118,20133,SAND,Bbl,187296,9148540,15,9041,55.9,36,47.78922194,-103.8016718
33053090610000,36416,"EOG RESOURCES, INC.",CLARKS CREEK 105-0719H,MCKENZIE,BAKKEN,9/7/2019,8/22/2019,12184,21830,SAND,Gal,11565666,19500840,7,9108,80.3,40,47.90652373,-102.7586188
33053090600000,36415,"EOG RESOURCES, INC.",CLARKS CREEK 18-0719H,MCKENZIE,BAKKEN,9/7/2019,8/22/2019,12161,21807,SAND,Gal,9735921,14094480,7,9228,79.7,40,47.90662982,-102.7587447
33053090580000,36413,"EOG RESOURCES, INC.",CLARKS CREEK 106-0724H,MCKENZIE,BAKKEN,9/7/2019,8/23/2019,11612,21378,SAND,Gal,11370675,21848780,7,9126,83.1,41,47.90684473,-102.7589964
33053090570000,36412,"EOG RESOURCES, INC.",CLARKS CREEK 47-0706H,MCKENZIE,BAKKEN,10/20/2019,9/16/2019,11280,20786,SAND,Bbl,232819,13061390,7,9183,81.8,39,47.90789763,-102.759798
33053090560000,36411,"EOG RESOURCES, INC.",CLARKS CREEK 46-0706H,MCKENZIE,BAKKEN,10/17/2019,9/17/2018,11389,21056,SAND,Bbl,275726,17624440,7,8979,81.9,39,47.90801484,-102.7598993
33053090550000,36410,"EOG RESOURCES, INC.",CLARKS CREEK 45-0705H,MCKENZIE,SANISH,10/17/2019,9/27/2018,11325,20810,SAND,Bbl,279111,16727960,7,9099,78.4,39,47.9081348,-102.7600006
33053090470000,36394,MARATHON OIL COMPANY,YELLOW BULL USA  14-16H,MCKENZIE,BAKKEN,9/28/2019,9/11/2019,11332,21084,SAND,Bbl,198496,8556021,NULL,8456,65.9,45,47.9740627,-102.6100166
33053090460000,36393,MARATHON OIL COMPANY,YESENKO USA  11-21TFH,MCKENZIE,BAKKEN,9/24/2019,9/5/2019,11474,21149,SAND,Bbl,196433,8573353,NULL,8685,66.6,45,47.97406246,-102.6098327
33061044780000,36392,WHITING OIL AND GAS CORPORATION,STENSETH TRUST 11-5HU,MOUNTRAIL,BAKKEN,9/25/2019,8/23/2019,9275,14931,SAND,Bbl,84844,4052114,NULL,9228,55.7,19,48.02238754,-102.362921
33105051690000,36375,"KRAKEN OPERATING, LLC",STEVENSON 31-30  #5H,WILLIAMS,BAKKEN,10/8/2019,8/20/2019,10563,20707,SAND,Bbl,204881,10160695,NULL,9389,81.8,60,48.45864397,-103.3870309
33105051680000,36374,"KRAKEN OPERATING, LLC",WALLACE 6-7  #2H,WILLIAMS,BAKKEN,10/8/2019,8/7/2019,10581,20732,SAND,Bbl,210639,10154450,NULL,9118,82.7,60,48.45864409,-103.3867588
33105051670000,36373,"KRAKEN OPERATING, LLC",GARNER 32-29  #2H,WILLIAMS,BAKKEN,10/13/2019,8/20/2019,10658,20799,SAND,Bbl,206667,10154285,NULL,9241,81.7,60,48.45864415,-103.3866227
33105051660000,36372,"KRAKEN OPERATING, LLC",KING-WALLACE LW 5-8  #1H,WILLIAMS,BAKKEN,10/13/2019,8/7/2019,10684,20843,SAND,Bbl,209673,10154120,NULL,9464,82.6,60,48.45864421,-103.3864866
33105051650000,36371,"KRAKEN OPERATING, LLC",KING 5-8  #2H,WILLIAMS,BAKKEN,10/13/2019,8/7/2019,10666,20835,SAND,Bbl,210371,10154590,NULL,9142,83.9,60,48.45864427,-103.3863505
33053090440000,36370,NEWFIELD PRODUCTION COMPANY,HOFFMANN  150-98-18-19-10H,MCKENZIE,BAKKEN,11/5/2019,10/8/2019,11515,21071,SAND,Bbl,213417,6971071,NULL,9467,86.9,40,47.81826771,-103.2646204
33053090430000,36369,NEWFIELD PRODUCTION COMPANY,HOFFMANN  150-98-18-19-5H,MCKENZIE,BAKKEN,11/19/2019,10/8/2019,11754,21343,SAND,Bbl,207524,6794184,NULL,9515,88,39,47.81826778,-103.2645389
33053090420000,36368,NEWFIELD PRODUCTION COMPANY,HOFFMANN  150-98-17-20-5HLW,MCKENZIE,BAKKEN,11/21/2019,9/19/2019,11502,21421,SAND,Bbl,225459,6956878,NULL,9467,88.2,40,47.81826797,-103.2643352
33053090410000,36367,NEWFIELD PRODUCTION COMPANY,HOFFMANN  150-98-17-20-10HLW,MCKENZIE,BAKKEN,11/10/2019,10/7/2019,11565,21396,SAND,Bbl,228867,6968402,NULL,9497,87.2,40,47.81826809,-103.264213
33053090400000,36366,NEWFIELD PRODUCTION COMPANY,HOFFMANN  150-98-17-20-6H,MCKENZIE,BAKKEN,11/3/2019,9/19/2019,11530,21398,SAND,Bbl,226244,6839399,NULL,9540,87.3,39,47.8182682,-103.2640908
33053090390000,36364,NEWFIELD PRODUCTION COMPANY,SCHNEIDERMAN  150-99-29-32-2HLW,MCKENZIE,BAKKEN,9/18/2019,8/14/2019,11761,21660,SAND,Bbl,219083,7201906,NULL,9377,67,26,47.79170535,-103.3864008
33025037910000,36352,MARATHON OIL COMPANY,DELMONT  34-23H,DUNN,BAKKEN,7/28/2019,7/2/2019,11299,21201,SAND,Bbl,227866,7971195,NULL,9118,61,45,47.44547695,-102.7473571
33025037820000,36324,BURLINGTON RESOURCES OIL & GAS COMPANY LP,CCU BURNER  1A TFH,DUNN,BAKKEN,8/5/2019,6/13/2019,11610,21781,SAND,Bbl,176784,10910786,15,9446,97,31,47.53031592,-102.7557683
33061044540000,36323,WHITING OIL AND GAS CORPORATION,OPPEBOEN 14-5HU,MOUNTRAIL,BAKKEN,9/26/2019,8/7/2019,10778,19480,SAND,Bbl,154761,7438015,NULL,9016,56.7,35,48.01056753,-102.3639127
33061044530000,36321,WHITING OIL AND GAS CORPORATION,JONES  12-8HU,MOUNTRAIL,BAKKEN,11/17/2019,10/24/2019,10310,17079,SAND,Bbl,143650,5783700,NULL,9121,62.7,28,48.17570033,-102.4173372
33053090240000,36318,PETROSHALE (US) INC.,ANDERSON NORTH  2MBH,MCKENZIE,BAKKEN,10/6/2019,8/21/2019,11464,21465,SAND,Bbl,222057,383850,15,8170,75,46,47.72574289,-102.9401051
33053090230000,36317,PETROSHALE (US) INC.,ANDERSON NORTH  1TFH,MCKENZIE,BAKKEN,10/4/2019,8/20/2019,11540,21519,SAND,Bbl,221083,8749125,15,8209,75,50,47.72587996,-102.9401079
33053090220000,36316,PETROSHALE (US) INC.,ANDERSON NORTH  1MBH,MCKENZIE,BAKKEN,9/27/2019,8/19/2019,11479,21477,SAND,Bbl,234381,9883125,15,8175,75,50,47.72601702,-102.9401108
33053090130000,36300,NEWFIELD PRODUCTION COMPANY,SCHNEIDERMAN  150-99-29-32-7H,MCKENZIE,BAKKEN,10/5/2019,7/28/2019,11469,21212,SAND,Bbl,454748,13750725,NULL,9400,86.5,40,47.79141556,-103.3748042
33053090120000,36299,NEWFIELD PRODUCTION COMPANY,SCHNEIDERMAN  150-99-29-32-6H,MCKENZIE,BAKKEN,10/7/2019,8/29/2019,12934,21305,SAND,Bbl,375077,11678786,NULL,9290,86,34,47.7914978,-103.3748042
33053090110000,36298,NEWFIELD PRODUCTION COMPANY,SCHNEIDERMAN  150-99-29-32-5H,MCKENZIE,BAKKEN,10/9/2019,8/30/2019,11886,21412,SAND,Bbl,223730,6829890,NULL,7374,67.9,40,47.79158004,-103.3748043
33053090090000,36296,NEWFIELD PRODUCTION COMPANY,SCHNEIDERMAN  150-99-29-32-3H,MCKENZIE,BAKKEN,9/17/2019,7/19/2019,11524,21569,SAND,Bbl,227964,7307285,NULL,9500,70.4,40,47.79163681,-103.3864009
33053090060000,36285,"NINE POINT ENERGY, LLC",HOVDE E 150-100-6-7-5H,MCKENZIE,BAKKEN,8/18/2019,8/3/2019,11281,21032,SAND,Bbl,175143,10159216,NULL,9574,58.6,60,47.84737248,-103.5272701
33053090050000,36284,"NINE POINT ENERGY, LLC",HOVDE E 150-100-6-7-6H,MCKENZIE,BAKKEN,8/20/2019,8/3/2019,11409,21166,SAND,Bbl,184747,10158983,NULL,9804,75.9,60,47.84737234,-103.5271682
33025037560000,36267,MARATHON OIL COMPANY,BLANCHE  14-36H,DUNN,BAKKEN,7/20/2019,6/15/2019,11258,21147,SAND,Bbl,212608,7351300,NULL,9163,61.3,45,47.41656669,-102.735776
33025037550000,36266,MARATHON OIL COMPANY,DASHA USA  44-11H,DUNN,BAKKEN,8/4/2019,7/14/2019,11405,21088,SAND,Bbl,218066,8223382,NULL,9095,64.9,45,47.47114821,-102.7322679
33025037540000,36265,MARATHON OIL COMPANY,DOROTHY  14-12TFH,DUNN,BAKKEN,8/3/2019,7/15/2019,11397,21119,SAND,Bbl,184367,6393424,NULL,9051,64.9,45,47.47111868,-102.7320695
33061044510000,36258,"HESS BAKKEN INVESTMENTS II, LLC",RS-HARSTAD- 155-91-0433H-2,MOUNTRAIL,BAKKEN,10/27/2019,9/7/2019,9796,19904,SAND,Bbl,238633,12672071,NULL,9331,92.7,39,48.26804384,-102.3877079
33061044500000,36257,"HESS BAKKEN INVESTMENTS II, LLC",RS-HARSTAD- 155-91-0433H-3,MOUNTRAIL,BAKKEN,11/2/2019,9/8/2019,9847,19937,SAND,Bbl,240849,12766294,NULL,9230,93.2,39,48.26804339,-102.3878434
33061044490000,36256,"HESS BAKKEN INVESTMENTS II, LLC",RS-HARSTAD- 155-91-0433H-4,MOUNTRAIL,BAKKEN,11/7/2019,9/8/2019,9907,19989,SAND,Bbl,238436,12765084,NULL,9407,92.8,39,48.26804295,-102.387979
33061044480000,36255,"HESS BAKKEN INVESTMENTS II, LLC",RS-HARSTAD- 155-91-0433H-5,MOUNTRAIL,BAKKEN,11/12/2019,9/18/2019,10025,20093,SAND,Bbl,242996,12668138,NULL,9222,88.2,45,48.2680425,-102.3881146
33025037530000,36236,BURLINGTON RESOURCES OIL & GAS COMPANY LP,CCU PRAIRIE ROSE  1B TFH,DUNN,BAKKEN,8/31/2019,8/17/2019,11805,20923,SAND,Bbl,129435,5873800,15,9336,96.1,28,47.52611834,-102.8396796
33061044340000,36212,WHITING OIL AND GAS CORPORATION,SORENSON  11-3HU,MOUNTRAIL,BAKKEN,10/9/2019,9/14/2019,10144,20151,SAND,Bbl,216811,8069110,NULL,8993,63.6,39,48.02230984,-102.3207763
33105051490000,36192,"BRUIN E&P OPERATING, LLC",WM JOHNSON  157-99-3B-10-1T,WILLIAMS,BAKKEN,8/28/2019,7/31/2019,10563,20650,SAND,Bbl,225207,10222425,15,9821,82,57,48.4587211,-103.4670631
33025037270000,36167,MARATHON OIL COMPANY,MEREDITH  14-24H,DUNN,BAKKEN,8/8/2019,6/29/2019,11265,21122,SAND,Bbl,210482,8255134,NULL,8374,66,45,47.44552839,-102.7377158
33105051300000,36157,"NINE POINT ENERGY, LLC",S MISSOURI 152-103-9-11-12H,WILLIAMS,BAKKEN,12/3/2019,10/9/2019,12117,24754,SAND,Bbl,240871,13056569,NULL,9722,77.1,80,48.01420458,-103.8759159
33105051290000,36156,"NINE POINT ENERGY, LLC",S MISSOURI 152-103-9-11-11H,WILLIAMS,BAKKEN,11/22/2019,10/9/2019,11732,24387,SAND,Bbl,239654,13060082,NULL,9235,76.4,80,48.01420517,-103.8758136
33105051280000,36155,"NINE POINT ENERGY, LLC",S MISSOURI 152-103-9-11-10H,WILLIAMS,BAKKEN,11/1/2019,10/9/2019,11441,24102,SAND,Bbl,237522,13045649,NULL,9294,76.2,80,48.01420577,-103.8757114
33053089680000,36154,WHITING OIL AND GAS CORPORATION,MARTELL 34-36HU,MCKENZIE,BAKKEN,7/20/2019,7/5/2019,12687,21441,SAND,Bbl,143444,5016060,15,9089,61.4,36,47.84883113,-103.8053044
33025037210000,36142,HUNT OIL COMPANY,COOK 146-93-24-13H-  4,DUNN,BAKKEN,7/27/2019,7/11/2019,10837,20025,SAND,Bbl,265124,255373,15,8558,72.7,31,47.445075,-102.4789346
33061044330000,36140,WHITING OIL AND GAS CORPORATION,OPPEBOEN  12-5-2H,MOUNTRAIL,BAKKEN,10/8/2019,8/16/2019,10256,19194,SAND,Bbl,174846,8142924,NULL,8788,57.8,36,48.01656612,-102.3640221
33061044320000,36139,WHITING OIL AND GAS CORPORATION,OPPEBOEN 12-5-4H,MOUNTRAIL,BAKKEN,9/25/2019,8/15/2019,10242,19038,SAND,Bbl,139617,6660266,NULL,8796,57.5,36,48.01640165,-102.3640239
33061044270000,36132,WHITING OIL AND GAS CORPORATION,ED TTT FEDERAL 43-4H,MOUNTRAIL,BAKKEN,11/23/2019,10/19/2019,9968,19466,SAND,Bbl,171038,8085570,NULL,9380,61.4,38,48.1873157,-102.3760287
33061044260000,36131,WHITING OIL AND GAS CORPORATION,ELMA TTT FEDERAL 43-4H,MOUNTRAIL,BAKKEN,11/13/2019,10/17/2019,10057,18200,SAND,Bbl,166059,6798240,NULL,9476,61.4,33,48.187417,-102.3759172
33025037190000,36128,"LIME ROCK RESOURCES III-A, L.P.",STATE 7-25-36H-144-97L,DUNN,BAKKEN,9/30/2019,8/8/2019,11343,21265,SAND,Bbl,194425,6013623,15,12282,62,50,47.26917726,-102.9234878
33105051200000,36127,"BRUIN E&P OPERATING, LLC",BORRUD   156-101-1B-12-3H,WILLIAMS,BAKKEN,6/2/2019,4/11/2019,10510,21100,SAND,Bbl,295845,15990677,15,9592,81,60,48.37207739,-103.617562
33025037180000,36120,MARATHON OIL COMPANY,TUFTE  24-23TFH,DUNN,BAKKEN,8/12/2019,7/14/2019,11373,21378,SAND,Bbl,197972,6382925,NULL,9050,61.4,45,47.44548006,-102.7479573
33025037170000,36119,MARATHON OIL COMPANY,BUGBEE  24-23H,DUNN,BAKKEN,7/31/2019,7/14/2019,11222,21187,SAND,Bbl,218223,8327467,NULL,8863,62.8,45,47.44547912,-102.7477752
33025037160000,36118,MARATHON OIL COMPANY,BREWSTER  24-23TFH,DUNN,BAKKEN,7/30/2019,7/2/2019,11302,21250,SAND,Bbl,201394,6407455,NULL,9157,60.8,45,47.44547818,-102.7475931
33025037150000,36108,MARATHON OIL COMPANY,SARAH  24-12TFH,DUNN,BAKKEN,8/6/2019,7/15/2019,11328,21191,SAND,Bbl,166487,6423715,NULL,8230,64.1,45,47.47108915,-102.7318712
33025037020000,36095,"WPX ENERGY WILLISTON, LLC",ST ANTHONY  9-16HUL,DUNN,BAKKEN,12/5/2019,11/2/2019,11366,20999,SAND,Gal,5109388,8265740,NULL,9615,106.2,33,47.74539973,-102.5919304
33053089570000,36089,"WPX ENERGY WILLISTON, LLC",RUBY   31-30HEL,MCKENZIE,SANISH,6/21/2019,6/6/2019,11368,20959,SAND,Gal,4659493,7077604,NULL,9636,78.2,36,47.84836694,-102.7628761
33053089460000,36047,OASIS PETROLEUM NORTH AMERICA LLC,LEWIS FEDERAL 5300 11-31 4BR,MCKENZIE,BAKKEN,8/11/2019,6/20/2019,11220,20699,SAND,Bbl,331261,6007150,NULL,8967,73,40,48.03565421,-103.6031299
33105051120000,36045,"KRAKEN OPERATING, LLC",RUFFING 27-34  #4H,WILLIAMS,BAKKEN,7/24/2019,5/11/2019,10788,20944,SAND,Bbl,209442,10154309,NULL,9153,82,60,48.40058899,-103.4522679
33105051110000,36044,"KRAKEN OPERATING, LLC",RUFFING 27-34  #5H,WILLIAMS,BAKKEN,7/24/2019,5/11/2019,10679,20637,SAND,Bbl,207871,10154307,NULL,9221,82.3,60,48.40058837,-103.452132
33105051100000,36043,"KRAKEN OPERATING, LLC",RUFFING 27-34  #6H,WILLIAMS,BAKKEN,7/31/2019,5/30/2019,10708,20856,SAND,Bbl,207626,10154740,NULL,9262,84.3,60,48.40058774,-103.451996
33105051090000,36042,"KRAKEN OPERATING, LLC",COVELESKI 26-35 LW  #1H,WILLIAMS,BAKKEN,7/31/2019,5/30/2019,10630,20586,SAND,Bbl,206113,10154770,NULL,9234,82.9,60,48.40058712,-103.4518601
33105051080000,36041,"KRAKEN OPERATING, LLC",COVELESKI 26-35  #5H,WILLIAMS,BAKKEN,8/5/2019,5/29/2019,10671,20818,SAND,Bbl,206923,10154294,NULL,9081,81.7,60,48.40058649,-103.4517242
33053089450000,36040,"WPX ENERGY WILLISTON, LLC",WHITE OWL  32-29HC,MCKENZIE,BAKKEN,10/25/2019,10/15/2019,11699,21315,SAND,Gal,5218565,8328726,NULL,9808,106,34,47.67628796,-102.7378085
33053089440000,36039,"WPX ENERGY WILLISTON, LLC",WHITE OWL  32-29HY,MCKENZIE,BAKKEN,10/26/2019,10/14/2019,11605,21213,SAND,Gal,4042936,5910824,NULL,9604,106,34,47.67636215,-102.7378614
33025036680000,36027,MARATHON OIL COMPANY,PLETAN 11-13TFH,DUNN,BAKKEN,9/17/2019,8/11/2019,11000,20919,SAND,Bbl,177404,6532049,NULL,8835,48.3,45,47.38563634,-102.6116223
33025036670000,36026,MARATHON OIL COMPANY,HERBERT 41-14H,DUNN,BAKKEN,9/10/2019,8/22/2019,10986,20877,SAND,Bbl,191443,8515899,NULL,8721,63.7,45,47.38563665,-102.6118041
33061044110000,36025,WHITING OIL AND GAS CORPORATION,WHITE 43-33-2TFH,MOUNTRAIL,BAKKEN,7/29/2019,6/27/2019,10430,20055,SAND,Bbl,165075,5962860,15,9047,56.7,39,48.11516148,-102.3767477
33053089430000,36019,"WPX ENERGY WILLISTON, LLC",BISON  27-34HX,MCKENZIE,BAKKEN,8/14/2019,7/28/2019,11318,20916,SAND,Gal,4009178,5887288,NULL,9693,102.4,33,47.70221016,-102.7008903
33053089420000,36018,"WPX ENERGY WILLISTON, LLC",BISON  27-34HA,MCKENZIE,BAKKEN,8/13/2019,7/28/2019,11253,20829,SAND,Gal,4061340,5887930,NULL,9577,107,33,47.70221017,-102.7010122
33053089410000,36017,"WPX ENERGY WILLISTON, LLC",BISON  27-34HW,MCKENZIE,BAKKEN,8/12/2019,7/28/2019,11364,20956,SAND,Gal,5857319,9666990,NULL,9625,102,33,47.70221291,-102.7011342
33053089400000,36016,"WPX ENERGY WILLISTON, LLC",BISON  27-34HEL,MCKENZIE,BAKKEN,8/10/2019,7/28/2019,11303,20992,SAND,Gal,4496809,7004604,NULL,9635,106.5,33,47.70221291,-102.7012561
33025036610000,36015,RIMROCK OIL & GAS WILLISTON LLC,TWO SHIELDS BUTTE  5-7-24-16H3U,DUNN,BAKKEN,8/15/2019,6/7/2019,11225,21190,SAND,Gal,7961940,10097882,NULL,9617,92,46,47.74245775,-102.5135457
33025036600000,36014,RIMROCK OIL & GAS WILLISTON LLC,TWO SHIELDS BUTTE  5-7-8-1H3U,DUNN,BAKKEN,8/15/2019,6/7/2019,11189,21215,SAND,Gal,7881478,10125609,NULL,9622,93,46,47.74232072,-102.5135504
33061044100000,36013,"KRAKEN DEVELOPMENT III, LLC",BIGFOOT 23-11   #4TFH,MOUNTRAIL,BAKKEN,7/15/2019,6/26/2019,10899,26329,SAND,Bbl,401070,23071160,NULL,9154,82.3,90,48.04920098,-102.4812524
33061044090000,36012,"KRAKEN DEVELOPMENT III, LLC",BIGFOOT 23-11   #3H,MOUNTRAIL,BAKKEN,7/15/2019,6/10/2019,10686,26118,SAND,Bbl,351834,15444520,NULL,9204,87.5,105,48.04920162,-102.4813874
33061044080000,36011,"KRAKEN DEVELOPMENT III, LLC",BIGFOOT 23-11   #2TFH,MOUNTRAIL,BAKKEN,7/18/2019,6/26/2019,10774,26191,SAND,Bbl,401038,23071950,NULL,9166,82,90,48.04920227,-102.4815224
33061044070000,36010,"KRAKEN DEVELOPMENT III, LLC",BIGFOOT 23-11 LW  #1H,MOUNTRAIL,BAKKEN,7/18/2019,6/10/2019,10540,25965,SAND,Bbl,350488,15444390,NULL,9436,84.3,105,48.04920291,-102.4816575
33023014380000,36003,HUNT OIL COMPANY,ALEXANDRIA 161-100-22-15H  2,DIVIDE,BAKKEN,8/2/2019,7/16/2019,8077,18577,SAND,Bbl,255756,313037,15,7888,79,41,48.75103935,-103.6428725
33053089290000,35996,WHITING OIL AND GAS CORPORATION,MARTELL 34-36-3H,MCKENZIE,BAKKEN,7/18/2019,7/6/2019,10982,20402,SAND,Bbl,142163,5004040,15,9066,61.8,38,47.8488278,-103.8049375
33053089280000,35995,WHITING OIL AND GAS CORPORATION,MARTELL  34-36-2H,MCKENZIE,BAKKEN,7/14/2019,7/6/2019,10984,20929,SAND,Bbl,156495,6118260,15,9082,63.6,39,47.84883002,-103.8051821
33105051000000,35987,"NINE POINT ENERGY, LLC",LITTLE MUDDY   8H,WILLIAMS,BAKKEN,6/17/2019,5/19/2019,11064,20772,SAND,Bbl,185190,10252581,NULL,9832,76.8,60,48.18717708,-103.5847986
33105050990000,35986,"NINE POINT ENERGY, LLC",LITTLE MUDDY   7H,WILLIAMS,BAKKEN,6/13/2019,5/20/2019,11189,20882,SAND,Bbl,177669,10160840,NULL,9822,76.3,60,48.18717684,-103.584696
33105050980000,35985,"NINE POINT ENERGY, LLC",LITTLE MUDDY   6H,WILLIAMS,BAKKEN,6/11/2019,5/20/2019,11286,21155,SAND,Bbl,182854,10207844,NULL,9230,77.9,60,48.18717661,-103.5845934
33105050970000,35984,"BRUIN E&P OPERATING, LLC",WM HELSTAD  158-99-34C-27-4B,WILLIAMS,BAKKEN,8/22/2019,7/6/2019,10662,20660,SAND,Bbl,277110,15140686,15,9504,80,57,48.45872204,-103.4665476
33105050960000,35983,"BRUIN E&P OPERATING, LLC",WM JOHNSON  157-99-3B-10-4B,WILLIAMS,BAKKEN,8/25/2019,7/19/2019,10665,20765,SAND,Bbl,263385,14451938,15,9494,84,42,48.45872167,-103.4667538
33061044010000,35982,SINCLAIR OIL & GAS COMPANY,URAN 7-15H,MOUNTRAIL,BAKKEN,8/25/2019,7/29/2019,9980,20410,SAND,Bbl,290101,9266584,NULL,9044,78.8,47,48.08003026,-102.4905078
33061044000000,35981,SINCLAIR OIL & GAS COMPANY,URAN 8-15H,MOUNTRAIL,BAKKEN,8/21/2019,7/29/2019,10010,20435,SAND,Bbl,291489,9254478,NULL,8852,80.2,47,48.08003027,-102.4906921
33053089270000,35980,NEWFIELD PRODUCTION COMPANY,STURGEON  150-99-18-19-10H,MCKENZIE,BAKKEN,7/26/2019,5/22/2019,11723,21534,SAND,Bbl,304852,8324690,NULL,7336,71.3,39,47.81680996,-103.410574
33053089260000,35979,NEWFIELD PRODUCTION COMPANY,STURGEON  150-99-18-19-3H,MCKENZIE,BAKKEN,7/28/2019,5/23/2019,11681,21761,SAND,Bbl,299394,8291611,NULL,7404,71,40,47.81672772,-103.4105736
33053089250000,35978,NEWFIELD PRODUCTION COMPANY,STURGEON  150-99-18-19-2H,MCKENZIE,BAKKEN,7/25/2019,5/23/2019,11601,21578,SAND,Bbl,307143,8479090,NULL,7379,70.9,40,47.81664547,-103.4105731
33053089240000,35977,NEWFIELD PRODUCTION COMPANY,STURGEON  150-99-18-19-5H,MCKENZIE,BAKKEN,7/14/2019,5/14/2019,11528,21493,SAND,Bbl,243226,7032415,NULL,7280,61.6,39,47.82016526,-103.3988561
33053089230000,35976,NEWFIELD PRODUCTION COMPANY,STURGEON  150-99-18-19-11H,MCKENZIE,BAKKEN,7/11/2019,5/13/2019,11595,21721,SAND,Bbl,247288,6993568,NULL,59,7365,39,47.82016601,-103.3989783
33053089220000,35975,NEWFIELD PRODUCTION COMPANY,STURGEON  150-99-18-19-4H,MCKENZIE,BAKKEN,7/12/2019,5/13/2019,11669,21660,SAND,Bbl,251836,7091094,NULL,7288,60.3,39,47.82016675,-103.3991006
33025036540000,35965,"LIME ROCK RESOURCES III-A, L.P.",KARY 7-24-13H-144-97L,DUNN,BAKKEN,9/28/2019,8/8/2019,11271,21237,SAND,Bbl,193864,5950600,15,8710,61,50,47.26917776,-102.9233265
33053089170000,35964,"BRUIN E&P OPERATING, LLC",FB JAMES  150-94-3A-10-9B,MCKENZIE,BAKKEN,10/29/2019,9/21/2019,11310,21263,SAND,Bbl,244888,12495295,15,9682,80,54,47.84634638,-102.6989135
33053089160000,35963,"BRUIN E&P OPERATING, LLC",FB JAMES  150-94-3A-10-8T2,MCKENZIE,BAKKEN,10/31/2019,9/21/2019,11469,21255,SAND,Bbl,210872,8966637,15,9625,80,54,47.84634604,-102.6988116
33053089150000,35962,"BRUIN E&P OPERATING, LLC",FB JAMES  150-94-3A-10-7T,MCKENZIE,BAKKEN,11/2/2019,10/2/2019,11465,21335,SAND,Bbl,214374,8987995,15,9760,80,54,47.84634571,-102.6987097
33053089140000,35960,NEWFIELD PRODUCTION COMPANY,GOLIATH  150-98-5-8-8HLWR,MCKENZIE,BAKKEN,4/30/2019,3/28/2019,11746,21960,SAND,Bbl,226048,6825620,NULL,9268,50,59,47.84686758,-103.247412
33053089130000,35957,WHITING OIL AND GAS CORPORATION,CAYKO 21-22HU,MCKENZIE,BAKKEN,7/30/2019,7/20/2019,11940,20381,SAND,Bbl,158964,6024100,15,9285,60.9,34,47.89094551,-103.9837412
33053089120000,35956,WHITING OIL AND GAS CORPORATION,CAYKO 21-22-2H,MCKENZIE,BAKKEN,7/26/2019,7/20/2019,13357,20661,SAND,Bbl,159820,6032700,15,9090,61,40,47.89094587,-103.9834965
33053089110000,35955,WHITING OIL AND GAS CORPORATION,CAYKO 21-22-3H,MCKENZIE,BAKKEN,7/27/2019,7/20/2019,12612,21208,SAND,Bbl,152743,6121644,15,9144,61.3,35,47.89094605,-103.9833741
33025036530000,35954,RIMROCK OIL & GAS WILLISTON LLC,TWO SHIELDS BUTTE   5-7-8-8H,DUNN,BAKKEN,8/15/2019,6/7/2019,11065,20988,SAND,Gal,7071118,10100055,NULL,9789,92,46,47.74225224,-102.5135547
33025036520000,35953,RIMROCK OIL & GAS WILLISTON LLC,TWO SHIELDS BUTTE  5-7-8-8H3,DUNN,BAKKEN,8/15/2019,6/7/2019,11149,21093,SAND,Gal,7854639,9995113,NULL,9665,93,46,47.74218644,-102.513555
33061043960000,35945,WHITING OIL AND GAS CORPORATION,WHITE 43-33H,MOUNTRAIL,BAKKEN,8/21/2019,6/27/2019,10365,19608,SAND,Bbl,178303,8386820,15,8832,56.7,37,48.11507925,-102.3767499
33053089070000,35939,WHITING OIL AND GAS CORPORATION,NELSEN  11-2HU,MCKENZIE,BAKKEN,6/27/2019,6/14/2019,11280,20690,SAND,Bbl,149495,5843920,15,9111,60.2,37,47.93425491,-103.71022
33025036510000,35934,"LIME ROCK RESOURCES III-A, L.P.",SHUCK 7-33-28H-144-97,DUNN,BAKKEN,9/29/2019,7/28/2019,11340,21273,SAND,Bbl,211520,5991884,15,8843,63,50,47.2419112,-102.9749633
33025036500000,35919,PETROSHALE (US) INC.,HELEN  1MBH,DUNN,BAKKEN,9/5/2019,7/1/2019,11992,16129,SAND,Bbl,83492,4942171,15,8999,76.5,23,47.65890341,-102.6713389
33053088870000,35910,"WPX ENERGY WILLISTON, LLC",BEAVER 22-21HW,MCKENZIE,BAKKEN,10/9/2019,9/22/2019,11264,21086,SAND,Gal,5021727,8379016,NULL,9478,102.3,34,47.70472167,-102.6805233
33053088860000,35909,"WPX ENERGY WILLISTON, LLC",BEAVER  22-21HC,MCKENZIE,BAKKEN,10/10/2019,9/22/2019,11182,21018,SAND,Gal,5095871,8469781,NULL,9657,102.3,34,47.70468541,-102.6804133
33053088850000,35908,"WPX ENERGY WILLISTON, LLC",BEAVER  22-21HX,MCKENZIE,BAKKEN,10/11/2019,9/22/2019,11378,21086,SAND,Gal,5096708,8357751,NULL,9809,102,34,47.70464644,-102.6803074
33053088840000,35907,"WPX ENERGY WILLISTON, LLC",BEAVER  22-21HB,MCKENZIE,BAKKEN,10/13/2019,9/22/2019,11440,21249,SAND,Gal,5127569,8468359,NULL,9590,103,34,47.70460744,-102.6801974
33053088830000,35906,"CONTINENTAL RESOURCES, INC.",HONOLULU  4-15H,MCKENZIE,BAKKEN,7/13/2019,5/22/2019,11399,21592,SAND,Bbl,236292,9007488,NULL,9418,75,43,48.08103575,-103.6484698
33053088820000,35905,"CONTINENTAL RESOURCES, INC.",HONOLULU  5-15H,MCKENZIE,BAKKEN,7/16/2019,5/22/2019,11142,20955,SAND,Bbl,224203,8542544,NULL,9442,75,41,48.0809124,-103.6484688
33053088810000,35904,"CONTINENTAL RESOURCES, INC.",HONOLULU 6-15H,MCKENZIE,BAKKEN,7/18/2019,5/22/2019,11006,20884,SAND,Bbl,228946,8804640,0,9292,75,42,48.08078905,-103.6484679
33061043900000,35898,"SLAWSON EXPLORATION COMPANY, INC.",SLASHER FEDERAL  4-27-22MLH,MOUNTRAIL,BAKKEN,11/5/2019,10/5/2019,10622,20198,SAND,Bbl,287986,9506797,NULL,8689,45.8,44,47.94836443,-102.4449106
33061043890000,35897,"SLAWSON EXPLORATION COMPANY, INC.",SLASHER FEDERAL  5-27-22TFH,MOUNTRAIL,BAKKEN,12/7/2019,10/5/2019,10415,20647,SAND,Bbl,318369,9834321,NULL,9090,45.7,46,47.94836329,-102.4447064
33061043880000,35896,"SLAWSON EXPLORATION COMPANY, INC.",SLASHER FEDERAL 3-27-22MLH,MOUNTRAIL,BAKKEN,11/8/2019,10/5/2019,10370,20229,SAND,Bbl,290092,9615356,NULL,8634,43.9,45,47.94836215,-102.4445022
33025036490000,35890,ENERPLUS RESOURCES USA CORPORATION,TYPHOON  149-93-07D-12H-TF,DUNN,BAKKEN,7/11/2019,6/15/2019,11498,21230,SAND,Bbl,160554,8257735,15,9334,81,42,47.73557331,-102.6240314
33025036480000,35889,ENERPLUS RESOURCES USA CORPORATION,LIGHTNING  149-93-07D-12H,DUNN,BAKKEN,7/11/2019,6/15/2019,11250,21209,SAND,Bbl,168949,8439245,15,9395,77,43,47.73538689,-102.6240294
33025036470000,35888,ENERPLUS RESOURCES USA CORPORATION,SQUALL  149-93-07D-12H-TF,DUNN,BAKKEN,7/6/2019,6/25/2019,11338,21229,SAND,Bbl,159660,8238564,15,9392,74,42,47.73529369,-102.6240345
33025036460000,35887,ENERPLUS RESOURCES USA CORPORATION,STORMY 149-93-07D-12H-LL,DUNN,BAKKEN,7/6/2019,6/25/2019,11333,21242,SAND,Bbl,222821,12266550,15,9361,68,42,47.73510727,-102.6240325
33061043870000,35886,"LIBERTY RESOURCES MANAGEMENT COMPANY, LLC",MORGEN 158-93-20-17-2TFH,MOUNTRAIL,BAKKEN,7/28/2019,7/24/2019,10410,20425,SAND,Bbl,133776,84000000,15,9054,93,21,48.48751428,-102.7314605
33061043860000,35885,"LIBERTY RESOURCES MANAGEMENT COMPANY, LLC",PAIGE 158-93-19-18-3MBH,MOUNTRAIL,BAKKEN,8/2/2019,7/24/2019,10566,20713,SAND,Bbl,126245,8400000,15,8995,93.3,21,48.48751105,-102.7315595
33061043850000,35884,"LIBERTY RESOURCES MANAGEMENT COMPANY, LLC",HALEY 158-93-29-32-1TFH,MOUNTRAIL,BAKKEN,8/7/2019,7/18/2019,10273,20421,SAND,Bbl,167919,10800000,15,9296,93.2,27,48.48757728,-102.7320294
33061043840000,35883,"LIBERTY RESOURCES MANAGEMENT COMPANY, LLC",HALEY 158-93-29-32-10MBH,MOUNTRAIL,BAKKEN,8/12/2019,7/18/2019,10180,20316,SAND,Bbl,171961,10800003,15,9070,92.8,27,48.48757405,-102.7321284
33061043830000,35882,"LIBERTY RESOURCES MANAGEMENT COMPANY, LLC",KAITLYN 158-93-30-31-4TFH,MOUNTRAIL,BAKKEN,8/16/2019,7/18/2019,10318,20127,SAND,Bbl,182099,10800004,15,9159,93.3,27,48.48757357,-102.7322275
33061043820000,35881,WHITING OIL AND GAS CORPORATION,MEIERS 12-17-2H,MOUNTRAIL,BAKKEN,7/22/2019,6/17/2019,10720,20154,SAND,Bbl,150198,6172486,15,8878,57.1,41,48.16120405,-102.5467329
33061043810000,35880,WHITING OIL AND GAS CORPORATION,MEIERS 12-17-3H,MOUNTRAIL,BAKKEN,7/19/2019,6/18/2019,10732,19261,SAND,Bbl,101151,4058470,15,8954,56.9,35,48.16095734,-102.546732
33061043800000,35878,WHITING OIL AND GAS CORPORATION,DOMASKIN  21-20HU,MOUNTRAIL,BAKKEN,6/27/2019,5/11/2019,10857,17509,SAND,Bbl,116715,4832399,15,9009,56.8,28,48.15220273,-102.5380347
33061043790000,35877,WHITING OIL AND GAS CORPORATION,DOMASKIN 31-20HU,MOUNTRAIL,BAKKEN,7/1/2019,5/20/2019,10730,17973,SAND,Bbl,145753,6435380,15,8877,56.1,31,48.15232608,-102.5380336
33061043780000,35876,WHITING OIL AND GAS CORPORATION,DOMASKIN  24-17TFHU,MOUNTRAIL,BAKKEN,7/1/2019,5/12/2019,10890,17691,SAND,Bbl,119618,5193835,15,9132,56,29,48.15244943,-102.5380326
33061043770000,35875,WHITING OIL AND GAS CORPORATION,DOMASKIN  34-17TFHU,MOUNTRAIL,BAKKEN,6/27/2019,5/21/2019,10880,18101,SAND,Bbl,125151,4863810,15,8871,55.9,31,48.15257279,-102.5380316
33061043730000,35839,SINCLAIR OIL & GAS COMPANY,SINCLAIR STATE  8-36H,MOUNTRAIL,BAKKEN,7/17/2019,6/8/2019,10140,20780,SAND,Bbl,299038,8824351,NULL,9118,83.6,46,48.11094061,-102.5790039
33061043720000,35838,"KRAKEN DEVELOPMENT III, LLC",AURORA 19-20  #4TFH,MOUNTRAIL,BAKKEN,5/3/2019,4/5/2019,11077,21030,SAND,Bbl,263162,15395640,NULL,9031,82.9,61,48.14904511,-102.5707212
33061043710000,35837,"KRAKEN DEVELOPMENT III, LLC",COLTER 19-20  #3H,MOUNTRAIL,BAKKEN,5/3/2019,3/27/2019,10830,20936,SAND,Bbl,226809,10206020,NULL,9126,83.4,70,48.14913557,-102.570721
33061043700000,35836,"KRAKEN DEVELOPMENT III, LLC",GLADYS 19-20  #2TFH,MOUNTRAIL,BAKKEN,5/3/2019,3/27/2019,10947,21047,SAND,Bbl,257212,15249580,NULL,9222,83.6,60,48.14922603,-102.5707208
33061043690000,35835,"KRAKEN DEVELOPMENT III, LLC",RICHARD 19-20  #1TFH,MOUNTRAIL,BAKKEN,5/31/2019,3/27/2019,11028,21102,SAND,Bbl,258170,15249560,NULL,9162,82.1,60,48.14931649,-102.5707205
33105050730000,35834,WHITING OIL AND GAS CORPORATION,MOLINE  31-14-5TFHU,WILLIAMS,BAKKEN,5/6/2019,4/17/2019,11390,20330,SAND,Bbl,142414,6009000,NULL,8951,56,37,48.34152501,-103.6312036
33105050720000,35833,WHITING OIL AND GAS CORPORATION,MOLINE  31-14-4H,WILLIAMS,BAKKEN,5/5/2019,4/18/2019,10728,20101,SAND,Bbl,154672,6064625,NULL,8941,56.7,37,48.34140166,-103.6312043
33105050710000,35832,WHITING OIL AND GAS CORPORATION,MOLINE  31-14-4TFH,WILLIAMS,BAKKEN,5/2/2019,4/15/2019,10806,19732,SAND,Bbl,143737,5042877,NULL,9013,82,37,48.34127831,-103.631205
33023014370000,35830,"CONTINENTAL RESOURCES, INC.",IMSLAND 5-31H1,DIVIDE,BAKKEN,8/25/2019,8/2/2019,9773,19956,SAND,Bbl,142029,6048741,NULL,9266,61,34,48.6343426,-102.9962965
33023014360000,35829,"CONTINENTAL RESOURCES, INC.",IMSLAND 4-31H,DIVIDE,BAKKEN,8/25/2019,8/2/2019,9747,19940,SAND,Bbl,141625,6080444,NULL,9196,61,34,48.63433987,-102.9964827
33023014350000,35828,"CONTINENTAL RESOURCES, INC.",IMSLAND 6-31H,DIVIDE,BAKKEN,9/13/2019,8/3/2019,9581,19810,SAND,Bbl,136831,5894478,NULL,9235,61,33,48.63434533,-102.9961102
33105050700000,35825,"CONTINENTAL RESOURCES, INC.",GJORVEN   7-21H1,WILLIAMS,BAKKEN,7/16/2019,5/12/2019,11474,21314,SAND,NULL,NULL,NULL,NULL,NULL,NULL,46,48.22761879,-103.2936394
33105050690000,35824,"CONTINENTAL RESOURCES, INC.",GJORVEN FEDERAL  6-21H,WILLIAMS,BAKKEN,7/14/2019,5/12/2019,11327,21200,SAND,Bbl,181513,9231163,NULL,9407,81,46,48.22761914,-103.2938243
33053088580000,35823,WHITING OIL AND GAS CORPORATION,WAHLSTROM  21-3-3H,MCKENZIE,BAKKEN,6/29/2019,6/23/2019,11140,20777,SAND,Bbl,152446,6100510,15,9102,61.1,38,47.93432587,-103.7267173
33053088570000,35822,WHITING OIL AND GAS CORPORATION,WAHLSTROM  21-3-4H,MCKENZIE,BAKKEN,6/27/2019,6/23/2019,11217,21314,SAND,Bbl,162690,6431240,15,9096,60.4,40,47.93432581,-103.7265948
33025036350000,35821,MARATHON OIL COMPANY,BRYDEN 11-13H,DUNN,BAKKEN,9/23/2019,8/22/2019,10966,20789,SAND,Bbl,192980,8450691,NULL,9104,62.9,45,47.38563604,-102.6114405
33025036340000,35820,MARATHON OIL COMPANY,MAHER 41-14TFH,DUNN,BAKKEN,9/9/2019,8/11/2019,10980,20902,SAND,Bbl,175184,650516,NULL,8889,49.4,45,47.38563695,-102.611986
33061043680000,35819,OASIS PETROLEUM NORTH AMERICA LLC,OASIS MEIERS 5692 11-19 9BX,MOUNTRAIL,BAKKEN,10/14/2019,8/4/2019,10320,20030,SAND,Bbl,302910,5984850,NULL,8804,87,40,48.32605843,-102.5668661
33061043670000,35818,OASIS PETROLEUM NORTH AMERICA LLC,OASIS MEIERS 5692 11-19 10T,MOUNTRAIL,BAKKEN,10/16/2019,8/4/2019,10430,19913,SAND,Bbl,304738,5981443,NULL,8869,87,40,48.32605869,-102.5667303
33061043660000,35817,OASIS PETROLEUM NORTH AMERICA LLC,OASIS MEIERS 5692 11-19 11T,MOUNTRAIL,BAKKEN,11/11/2019,8/4/2019,10540,20033,SAND,Bbl,300925,5999310,NULL,8899,88,40,48.32605895,-102.5665946
33061043640000,35815,"HESS BAKKEN INVESTMENTS II, LLC",EN-WEYRAUCH B- 154-93-3031H-6,MOUNTRAIL,BAKKEN,11/4/2019,8/29/2019,11162,20579,SAND,Bbl,160689,9949025,NULL,9482,91.9,30,48.13814365,-102.679764
33061043630000,35814,"HESS BAKKEN INVESTMENTS II, LLC",EN-WEYRAUCH B- 154-93-3031H-5,MOUNTRAIL,BAKKEN,10/28/2019,8/28/2019,11173,20628,SAND,Bbl,161857,9980194,NULL,9377,91.7,30,48.13814335,-102.6796288
33061043620000,35813,"HESS BAKKEN INVESTMENTS II, LLC",EN-WEYRAUCH B- 154-93-3031H-7,MOUNTRAIL,BAKKEN,10/29/2019,8/29/2019,11341,21313,SAND,Bbl,162680,9980194,NULL,9370,91.8,30,48.13814395,-102.6798993
33061043610000,35812,"HESS BAKKEN INVESTMENTS II, LLC",EN-WEYRAUCH B- 154-93-3031H-8,MOUNTRAIL,BAKKEN,10/24/2019,9/3/2019,11237,21304,SAND,Bbl,180633,10077060,NULL,9422,91.7,30,48.13814424,-102.6800345
33053088560000,35811,"WPX ENERGY WILLISTON, LLC",RUBY   31-30HG,MCKENZIE,SANISH,6/30/2019,6/6/2019,11182,20707,SAND,Gal,4343941,5897466,NULL,9672,104.8,34,47.8483667,-102.7626315
33053088550000,35810,"WPX ENERGY WILLISTON, LLC",RUBY   31-30HS2,MCKENZIE,SANISH,6/25/2019,6/6/2019,11270,20837,SAND,Gal,5619843,9640257,NULL,9672,101.1,34,47.84836682,-102.7627538
33105050680000,35806,"BRUIN E&P OPERATING, LLC",BORRUD  157-100-33C-21-1H3,WILLIAMS,BAKKEN,5/28/2019,5/2/2019,10587,25873,SAND,Bbl,382006,15322251,15,9767,81,78,48.37207831,-103.6181916
33053088540000,35805,WHITING OIL AND GAS CORPORATION,LINK  24-12HU,MCKENZIE,BAKKEN,6/10/2019,4/30/2019,14013,22115,SAND,Bbl,158886,7028417,15,8971,76.5,32,47.82004708,-103.6821564
33053088530000,35804,WHITING OIL AND GAS CORPORATION,LINK  24-12-3H,MCKENZIE,BAKKEN,6/5/2019,4/30/2019,11390,20776,SAND,Bbl,161017,6849705,15,9020,76.7,37,47.82011004,-103.68223
33053088520000,35799,WHITING OIL AND GAS CORPORATION,LINK  31-14-2H,MCKENZIE,BAKKEN,4/24/2019,4/8/2019,11179,20587,SAND,Bbl,138528,6992306,15,9592,56.4,38,47.81833136,-103.7006446
33053088510000,35798,WHITING OIL AND GAS CORPORATION,LINK  31-14HU,MCKENZIE,BAKKEN,4/26/2019,4/8/2019,12742,21271,SAND,Bbl,126221,6024431,15,9063,55.9,35,47.81833158,-103.7007668
33105050670000,35796,"KRAKEN OPERATING, LLC",RIXEY 33-28  #8TFH,WILLIAMS,BAKKEN,6/20/2019,4/15/2019,10681,20853,SAND,Bbl,209403,10151640,NULL,9212,81.8,60,48.37398514,-103.4765006
33105050660000,35795,"KRAKEN OPERATING, LLC",RIXEY 33-28  #7H,WILLIAMS,BAKKEN,6/20/2019,4/15/2019,10690,20841,SAND,Bbl,213952,10152470,NULL,9105,81.9,60,48.37398507,-103.4766364
33105050650000,35794,"KRAKEN OPERATING, LLC",RIXEY 33-28  #6TFH,WILLIAMS,BAKKEN,6/20/2019,4/4/2019,10723,20878,SAND,Bbl,209403,10152520,NULL,9290,81.6,60,48.373985,-103.4767723
33105050640000,35793,"KRAKEN OPERATING, LLC",RIXEY 33-28  #5H,WILLIAMS,BAKKEN,6/12/2019,4/3/2019,10672,20749,SAND,Bbl,212722,10253190,NULL,9101,81.3,60,48.37398493,-103.4769082
33105050630000,35792,"KRAKEN OPERATING, LLC",RIXEY 33-28  #4TFH,WILLIAMS,BAKKEN,6/12/2019,4/3/2019,10785,21019,SAND,Bbl,208070,10154310,NULL,9130,81.8,60,48.37398487,-103.4770441
33053088500000,35791,WHITING OIL AND GAS CORPORATION,LINK  21-15-2H,MCKENZIE,BAKKEN,5/24/2019,4/20/2019,11130,21264,SAND,Bbl,146794,5744068,15,9022,56,38,47.8204473,-103.7273066
33053088490000,35790,WHITING OIL AND GAS CORPORATION,LINK  21-15-3H,MCKENZIE,BAKKEN,5/14/2019,4/20/2019,12201,22150,SAND,Bbl,170642,6964877,15,9173,56.7,38,47.8204481,-103.7271232
33061043600000,35782,"HESS BAKKEN INVESTMENTS II, LLC",EN-FARHART-  156-93-0409H-4,MOUNTRAIL,BAKKEN,6/29/2019,5/23/2019,10537,21499,SAND,Bbl,292805,10970796,NULL,9211,92.2,36,48.37137423,-102.6380011
33061043590000,35781,"HESS BAKKEN INVESTMENTS II, LLC",EN-FARHART-  156-93-0409H-5,MOUNTRAIL,BAKKEN,7/2/2019,5/23/2019,10728,21630,SAND,Bbl,239339,9151718,NULL,9406,75.1,36,48.37137342,-102.638137
33061043580000,35780,"HESS BAKKEN INVESTMENTS II, LLC",EN-FARHART-  156-93-0409H-6,MOUNTRAIL,BAKKEN,7/6/2019,6/1/2019,10717,21584,SAND,Bbl,287515,11062637,NULL,9431,74.4,36,48.3713726,-102.6382728
33061043570000,35779,"HESS BAKKEN INVESTMENTS II, LLC",EN-FARHART-  156-93-0409H-7,MOUNTRAIL,BAKKEN,7/9/2019,6/1/2019,10830,21715,SAND,Bbl,242535,9150395,NULL,9283,90.8,36,48.37137178,-102.6384087
33053088470000,35777,WHITING OIL AND GAS CORPORATION,ANDERSON 34-21H,MCKENZIE,BAKKEN,9/19/2019,9/3/2019,10758,21006,SAND,Bbl,141649,8134485,15,8948,56.1,40,47.96529231,-103.8701002
33053088460000,35776,WHITING OIL AND GAS CORPORATION,ANDERSON 34-21-2H,MCKENZIE,BAKKEN,9/24/2019,9/3/2019,10714,20033,SAND,Bbl,122776,6032695,15,8924,56.2,37,47.96534959,-103.8697694
33053088450000,35775,"CONTINENTAL RESOURCES, INC.",BOULDER 11-4H1,MCKENZIE,BAKKEN,7/22/2019,6/9/2019,11526,22662,SAND,Bbl,174935,9016342,NULL,9443,82,46,48.00844314,-103.3615177
33053088440000,35774,"CONTINENTAL RESOURCES, INC.",BOULDER 10-4H,MCKENZIE,BAKKEN,7/24/2019,6/9/2019,11464,22603,SAND,Bbl,239224,13975410,NULL,9398,82,46,48.00844247,-103.3617018
33025036240000,35758,PETROSHALE (US) INC.,HELEN  2TFH,DUNN,BAKKEN,9/6/2019,6/30/2019,11940,16012,SAND,Bbl,74262,4286478,15,9015,77.3,23,47.65880087,-102.6711927
33053088370000,35757,WHITING OIL AND GAS CORPORATION,NELSEN  11-2-2H,MCKENZIE,BAKKEN,6/22/2019,6/14/2019,11189,21200,SAND,Bbl,160018,6158500,15,9068,60.4,39,47.93425603,-103.7098526
33053088360000,35756,WHITING OIL AND GAS CORPORATION,NELSEN  11-2-1H,MCKENZIE,BAKKEN,7/8/2019,6/14/2019,11140,20701,SAND,Bbl,152828,6003500,15,9065,61,38,47.93425547,-103.7100363
33061043510000,35744,WHITING OIL AND GAS CORPORATION,OGDEN  41-9TFHU,MOUNTRAIL,BAKKEN,6/27/2019,6/8/2019,10744,25793,SAND,Bbl,201092,10272929,15,9309,57.2,60,48.18365665,-102.5029459
33061043490000,35742,WHITING OIL AND GAS CORPORATION,OGDEN  41-9HU,MOUNTRAIL,BAKKEN,6/18/2019,6/8/2019,10674,25828,SAND,Bbl,223277,10275240,15,9399,56.9,60,48.18340995,-102.5029477
33053088310000,35738,NEWFIELD PRODUCTION COMPANY,SKIPJACK  149-98-11-2-12H,MCKENZIE,BAKKEN,6/8/2019,4/4/2019,11651,21820,SAND,Bbl,183620,5452094,NULL,9081,56,48,47.73361583,-103.1879309
33053088300000,35737,NEWFIELD PRODUCTION COMPANY,SKIPJACK  149-98-11-2-11H,MCKENZIE,BAKKEN,6/10/2019,4/17/2019,11790,21396,SAND,Bbl,249054,6970816,NULL,9204,80.8,40,47.73361531,-103.188297
33025036230000,35735,RIMROCK OIL & GAS WILLISTON LLC,TWO SHIELDS BUTTE  9-8-7-12H3,DUNN,BAKKEN,6/25/2019,5/14/2019,10898,20801,SAND,Gal,7625858,10095787,NULL,9636,96,46,47.73742313,-102.4731432
33025036220000,35734,RIMROCK OIL & GAS WILLISTON LLC,TWO SHIELDS BUTTE  9-8-7-12H,DUNN,BAKKEN,6/25/2019,5/14/2019,10780,17971,SAND,Gal,5532103,7415955,NULL,9601,93,34,47.73738686,-102.473253
33025036210000,35733,RIMROCK OIL & GAS WILLISTON LLC,TWO SHIELDS BUTTE  9-8-7-5H3,DUNN,BAKKEN,6/30/2019,5/14/2019,10855,20803,SAND,Gal,7578424,9998735,NULL,9704,95,46,47.73735058,-102.4733627
33025036200000,35732,RIMROCK OIL & GAS WILLISTON LLC,TWO SHIELDS BUTTE  9-8-7-5H,DUNN,BAKKEN,7/2/2019,5/13/2019,10850,20801,SAND,Gal,7576415,10098335,NULL,9624,94,46,47.73731704,-102.4734725
33105050480000,35725,"NINE POINT ENERGY, LLC",STATE  154-102-25-36-7H,WILLIAMS,BAKKEN,7/6/2019,6/19/2019,11224,21045,SAND,Bbl,173217,10010228,NULL,9161,76.5,60,48.13867718,-103.7464182
33105050470000,35724,"NINE POINT ENERGY, LLC",STATE  154-102-25-36-8H,WILLIAMS,BAKKEN,7/3/2019,6/19/2019,11446,21262,SAND,Bbl,173744,10161012,NULL,9114,76,60,48.13867604,-103.7463158
33025036190000,35715,"WPX ENERGY WILLISTON, LLC",NANCY DANCING BULL  1-36HW,DUNN,BAKKEN,10/30/2019,10/23/2019,11166,20930,SAND,Gal,4843075,8426219,NULL,9647,104.8,34,47.7426247,-102.5322961
33025036180000,35714,"WPX ENERGY WILLISTON, LLC",NANCY DANCING BULL 1-36HE,DUNN,BAKKEN,7/27/2019,7/5/2019,11056,20928,SAND,Gal,5167140,8735570,NULL,9774,106.9,33,47.74263506,-102.532414
33025036170000,35713,"WPX ENERGY WILLISTON, LLC",NANCY DANCING BULL 1-36HQL,DUNN,BAKKEN,7/24/2019,7/4/2019,11164,20960,SAND,Gal,5188064,8405395,NULL,9845,107.3,34,47.74264814,-102.5325359
33061043480000,35709,"LIBERTY RESOURCES MANAGEMENT COMPANY, LLC",UT  158-93-12-1-4MBH,MOUNTRAIL,BAKKEN,3/12/2019,2/10/2019,9907,20097,SAND,Bbl,188813,10795850,15,9210,98.2,27,48.51646522,-102.6238775
33105050460000,35708,"HESS BAKKEN INVESTMENTS II, LLC",SC-HOVING- 154-98-1003H-5,WILLIAMS,BAKKEN,11/11/2019,9/20/2019,11438,21431,SAND,Bbl,205150,9884640,NULL,9206,85.8,36,48.16741965,-103.2635764
33105050450000,35707,"HESS BAKKEN INVESTMENTS II, LLC",SC-HOVING- 154-98-1003H-6,WILLIAMS,BAKKEN,11/7/2019,9/20/2019,11340,21375,SAND,Bbl,187229,9956238,NULL,9388,89.7,30,48.16741984,-103.2634411
33105050440000,35706,"HESS BAKKEN INVESTMENTS II, LLC",SC-HOVING- 154-98-1003H-7,WILLIAMS,BAKKEN,10/23/2019,9/2/2019,11346,21403,SAND,Bbl,195451,10002029,NULL,9294,90.5,36,48.16742003,-103.2633058
33105050430000,35705,"HESS BAKKEN INVESTMENTS II, LLC",SC-HOVING- 154-98-1003H-8,WILLIAMS,BAKKEN,10/31/2019,9/3/2019,11294,21393,SAND,Bbl,187005,10026580,NULL,9332,91.1,30,48.16742021,-103.2631705
33105050420000,35704,"HESS BAKKEN INVESTMENTS II, LLC",SC-HOVING- 154-98-1003H-9,WILLIAMS,BAKKEN,10/23/2019,9/2/2019,11369,21340,SAND,Bbl,197824,10007753,NULL,9417,88.2,36,48.1674204,-103.2630351
33025036160000,35703,PETROSHALE (US) INC.,THUNDER CLOUD  2TFH,DUNN,BAKKEN,8/7/2019,6/24/2019,11301,15718,SAND,Bbl,83505,5221510,15,8758,76.4,23,47.63332431,-102.5686162
33025036150000,35702,PETROSHALE (US) INC.,THUNDER CLOUD  2MBH,DUNN,BAKKEN,8/8/2019,6/23/2019,11048,15675,SAND,Bbl,84589,6028162,15,8662,76.3,23,47.63338756,-102.5687936
33025036140000,35701,PETROSHALE (US) INC.,THUNDER CLOUD  1TFH,DUNN,BAKKEN,9/9/2019,6/19/2019,11226,15506,SAND,Bbl,81873,5009890,15,8737,80,22,47.63345356,-102.568971
33025036130000,35700,PETROSHALE (US) INC.,THUNDER CLOUD  1MBH,DUNN,BAKKEN,8/11/2019,6/19/2019,11262,15362,SAND,Bbl,84274,5500687,15,8657,76.3,21,47.63351681,-102.5691484
33053088070000,35691,"CONTINENTAL RESOURCES, INC.",HEREFORD FEDERAL  15X-17HSL,MCKENZIE,BAKKEN,5/8/2019,2/5/2019,11110,26540,SAND,Bbl,329856,17903914,NULL,9107,77,81,48.06523699,-102.7833792
33053088010000,35685,WHITING OIL AND GAS CORPORATION,MARLENE  21-30HU,MCKENZIE,BAKKEN,4/15/2019,3/27/2019,11732,21109,SAND,Bbl,134100,6019731,15,9101,57,38,47.70262212,-103.2778113
33053088000000,35684,WHITING OIL AND GAS CORPORATION,NORMAN  21-30H,MCKENZIE,BAKKEN,4/25/2019,3/27/2019,11568,20679,SAND,Bbl,129036,5963011,15,9097,56.6,38,47.70262303,-103.2775674
33025036120000,35655,"LIME ROCK RESOURCES III-A, L.P.",NEAL 5-33-28H-144-95L,DUNN,BAKKEN,8/2/2019,7/13/2019,11073,21113,SAND,Bbl,215623,5959882,15,7776,63,50,47.24100989,-102.7210686
33025036110000,35654,"LIME ROCK RESOURCES III-A, L.P.",TWIST 5-3-10H-143-95L,DUNN,BAKKEN,8/9/2019,7/13/2019,11105,20963,SAND,Bbl,181706,5990055,15,8659,65,50,47.24100998,-102.7209074
33053087870000,35653,"WPX ENERGY WILLISTON, LLC",BIRD BEAR   35-26HW,MCKENZIE,BAKKEN,9/9/2019,8/20/2019,11364,20974,SAND,Gal,3982337,6279295,NULL,9822,104.9,34,47.76459163,-102.6848294
33053087860000,35652,"WPX ENERGY WILLISTON, LLC",BIRD BEAR   35-26HA,MCKENZIE,BAKKEN,9/8/2019,8/20/2019,11362,20917,SAND,Gal,3739578,6256952,NULL,9652,104,34,47.76450939,-102.6848442
33053087850000,35651,"WPX ENERGY WILLISTON, LLC",BIRD BEAR   35-26HS,MCKENZIE,BAKKEN,9/7/2019,8/21/2019,11502,21074,SAND,Gal,3958649,6252265,NULL,9668,106.1,34,47.76442988,-102.684863
33053087840000,35650,"WPX ENERGY WILLISTON, LLC",BIRD BEAR   35-26HB,MCKENZIE,BAKKEN,9/5/2019,8/12/2019,11491,21082,SAND,Gal,4071881,6281485,NULL,9667,106.1,34,47.76434764,-102.6848778
33053087830000,35649,"WPX ENERGY WILLISTON, LLC",BIRD BEAR   35-26HU,MCKENZIE,BAKKEN,9/4/2019,8/12/2019,11799,21261,SAND,Gal,4016230,6189898,NULL,9572,106,34,47.7642654,-102.6848926
33053087820000,35648,"WPX ENERGY WILLISTON, LLC",HACKBERRY  34-27HG,MCKENZIE,BAKKEN,9/1/2019,8/12/2019,11362,20873,SAND,Gal,3983887,6204323,NULL,9571,106,34,47.76418315,-102.6849074
33105050310000,35647,"KRAKEN OPERATING, LLC",RUFFING 27-34 LW  #1H,WILLIAMS,BAKKEN,6/29/2019,4/27/2019,10724,20897,SAND,Bbl,206183,10158970,NULL,9183,81.8,60,48.40238876,-103.4704665
33105050300000,35646,"KRAKEN OPERATING, LLC",RUFFING 27-34  #2TFH,WILLIAMS,BAKKEN,6/29/2019,4/27/2019,10761,20928,SAND,Bbl,206659,10154360,NULL,9217,81.7,60,48.40238813,-103.4703305
33105050290000,35645,"KRAKEN OPERATING, LLC",RUFFING 27-34  #3H,WILLIAMS,BAKKEN,6/29/2019,4/27/2019,10708,20875,SAND,Bbl,205555,10154450,NULL,9233,82,60,48.4023875,-103.4701946
33025036100000,35640,"WPX ENERGY WILLISTON, LLC",ST. ANTHONY 9-16HD,DUNN,BAKKEN,12/10/2019,11/15/2019,11574,21056,SAND,Gal,5058701,8266706,NULL,9665,105.7,33,47.74524321,-102.5911056
33025036090000,35639,"WPX ENERGY WILLISTON, LLC",ST. ANTHONY 9-16HX,DUNN,BAKKEN,12/9/2019,11/15/2019,11406,20994,SAND,Gal,4972336,8277456,NULL,9520,105,33,47.74526597,-102.5912234
33025036070000,35637,"WPX ENERGY WILLISTON, LLC",ST. ANTHONY 9-16HY,DUNN,BAKKEN,12/7/2019,11/15/2019,11186,20777,SAND,Gal,4814357,8236147,NULL,9575,105,29,47.74531147,-102.5914591
33025036050000,35635,"WPX ENERGY WILLISTON, LLC",ST. ANTHONY 9-16HZ,DUNN,BAKKEN,12/2/2019,11/4/2019,11140,20893,SAND,Gal,5050243,8265659,NULL,9600,107.2,33,47.74535423,-102.5916948
33053087810000,35633,MARATHON OIL COMPANY,PERKINS USA 12-16TFH,MCKENZIE,BAKKEN,10/21/2019,9/23/2019,12280,21997,SAND,Bbl,199378,8578136,NULL,8780,68.5,45,47.98360228,-102.6155906
33053087800000,35632,MARATHON OIL COMPANY,WALDORF USA 12-16H,MCKENZIE,BAKKEN,10/20/2019,9/23/2019,11915,21699,SAND,Bbl,194706,8563359,NULL,8648,65.4,45,47.98360155,-102.6154067
33053087790000,35631,MARATHON OIL COMPANY,EAGER USA 12-16TFH,MCKENZIE,BAKKEN,10/20/2019,9/23/2019,11393,21675,SAND,Bbl,196986,8544887,NULL,8583,65.4,45,47.98360081,-102.6152228
33053087780000,35630,MARATHON OIL COMPANY,FOUR BEARS USA 13-16H,MCKENZIE,BAKKEN,10/17/2019,9/24/2019,11736,21586,SAND,Bbl,201221,8478653,NULL,8924,65.5,45,47.98360008,-102.6150389
33007019130000,35629,"PETRO-HUNT, L.L.C.",ZABOLOTNY 144-98-3B-10-  3H,BILLINGS,BAKKEN,6/20/2019,5/17/2019,11735,22105,SAND,Bbl,341812,7577750,15,9608,72.7,44,47.32809085,-103.0954909
33007019120000,35628,"PETRO-HUNT, L.L.C.",ZABOLOTNY 144-98-3B-10- 2H,BILLINGS,BAKKEN,6/9/2019,5/27/2019,11420,21752,SAND,Bbl,399450,9592717,15,9473,72.2,44,47.3279949,-103.0954899
33013018820000,35624,"LIBERTY RESOURCES MANAGEMENT COMPANY, LLC",GLIKO  159-93-23-35-1MBHX,BURKE,BAKKEN,5/2/2019,4/20/2019,9509,24758,SAND,Bbl,252102,15999999,15,9422,90.1,40,48.58881743,-102.6616373
33013018810000,35623,"LIBERTY RESOURCES MANAGEMENT COMPANY, LLC",GARNES  159-93-14-2-1MBHX,BURKE,BAKKEN,4/25/2019,4/20/2019,9688,24938,SAND,Bbl,264451,15999997,15,9064,93.4,40,48.58881676,-102.661782
33061043390000,35620,WHITING OIL AND GAS CORPORATION,FLADELAND 44-9-2H,MOUNTRAIL,BAKKEN,8/6/2019,5/23/2019,10490,19206,SAND,Bbl,107597,5064917,15,8863,58.2,38,48.16973596,-102.5074695
33061043380000,35619,WHITING OIL AND GAS CORPORATION,FLADELAND 44-9-3H,MOUNTRAIL,BAKKEN,7/28/2019,5/23/2019,10528,19682,SAND,Bbl,140418,8034516,15,8888,57.7,41,48.16971381,-102.5075843
33061043370000,35611,"HESS BAKKEN INVESTMENTS II, LLC",RS-FLICKERTAIL-  156-91-1720H-4,MOUNTRAIL,BAKKEN,6/13/2019,2/4/2019,9735,20005,SAND,Bbl,158119,8430705,NULL,9263,80.7,32,48.34264025,-102.3985671
33061043360000,35610,"HESS BAKKEN INVESTMENTS II, LLC",RS-FLICKERTAIL-  156-91-1720H-3,MOUNTRAIL,BAKKEN,6/4/2019,2/25/2019,9874,20130,SAND,Bbl,160231,8407624,NULL,9269,92.2,36,48.3427307,-102.3985668
33061043350000,35609,"HESS BAKKEN INVESTMENTS II, LLC",RS-FLICKERTAIL-  156-91-1720H-2,MOUNTRAIL,BAKKEN,5/31/2019,3/10/2019,10025,20325,SAND,Bbl,157154,8408151,NULL,9373,92,36,48.34282116,-102.3985665
33105050240000,35607,WHITING OIL AND GAS CORPORATION,SYLTE  21-15-2TFH,WILLIAMS,BAKKEN,5/21/2019,4/3/2019,10780,20885,SAND,Bbl,158709,6646400,NULL,9250,56.2,41,48.34184254,-103.6615666
33105050230000,35606,WHITING OIL AND GAS CORPORATION,SYLTE  21-15-2H,WILLIAMS,BAKKEN,5/19/2019,4/3/2019,10703,20502,SAND,Bbl,157433,7041255,NULL,9117,8058,39,48.34184254,-103.66169
33105050220000,35605,WHITING OIL AND GAS CORPORATION,SYLTE  24-10-2H,WILLIAMS,BAKKEN,5/18/2019,3/22/2019,11413,21742,SAND,Bbl,168837,7244000,NULL,9103,56.9,40,48.34184254,-103.6618135
33105050210000,35604,WHITING OIL AND GAS CORPORATION,SYLTE  24-10-2TFH,WILLIAMS,BAKKEN,5/23/2019,3/22/2019,11102,21281,SAND,Bbl,158172,6489000,NULL,9100,60,40,48.3418398,-103.662192
33025035960000,35587,"CONTINENTAL RESOURCES, INC.",CARUS  12-28HSL1,DUNN,BAKKEN,5/28/2019,4/21/2019,11793,22018,SAND,Bbl,263875,12755605,NULL,9343,81,42,47.51832953,-102.9102409
33025035950000,35581,"PETRO-HUNT, L.L.C.",DOLEZAL 146-97-31C-30-  4H,DUNN,BAKKEN,5/25/2019,5/7/2019,11569,21319,SAND,Bbl,336623,7457946,15,9618,71.5,43,47.4138539,-103.0912693
33025035940000,35578,"CONTINENTAL RESOURCES, INC.",CARUS  11-28H,DUNN,BAKKEN,5/25/2019,4/22/2019,11696,21969,SAND,Bbl,257803,12732349,NULL,9512,81,42,47.5183297,-102.9104232
33025035930000,35577,"CONTINENTAL RESOURCES, INC.",CARUS  10-28H1,DUNN,BAKKEN,5/20/2019,4/21/2019,11752,22022,SAND,Bbl,261697,12749633,NULL,9617,81,42,47.51832988,-102.9106056
33025035920000,35576,"CONTINENTAL RESOURCES, INC.",CARUS  9-28H,DUNN,BAKKEN,5/17/2019,4/7/2019,11738,21970,SAND,Bbl,271947,12748453,NULL,9308,82,42,47.51833005,-102.9107879
33025035910000,35575,"CONTINENTAL RESOURCES, INC.",CARUS  8-28H1,DUNN,BAKKEN,5/16/2019,4/7/2019,11863,22117,SAND,Bbl,276070,12744128,NULL,9358,82,42,47.51833023,-102.9109742
33053087620000,35574,NEWFIELD PRODUCTION COMPANY,GOLIATH  150-98-5-8-11H,MCKENZIE,BAKKEN,4/29/2019,3/19/2019,11629,21825,SAND,Bbl,241328,10174108,NULL,9264,47,62,47.84686846,-103.2475342
33053087610000,35573,NEWFIELD PRODUCTION COMPANY,GOLIATH  150-98-5-8-5H,MCKENZIE,BAKKEN,4/26/2019,3/14/2019,11595,21790,SAND,Bbl,235283,10047699,NULL,9114,55,62,47.84687022,-103.2477788
33061043340000,35572,WHITING OIL AND GAS CORPORATION,ANDERSON  41-7HU,MOUNTRAIL,BAKKEN,7/6/2019,5/12/2019,10841,19345,SAND,Bbl,153035,6396365,15,8838,56.7,38,48.18083074,-102.5517589
33061043320000,35570,WHITING OIL AND GAS CORPORATION,ANDERSON  11-7-2TFH,MOUNTRAIL,BAKKEN,6/24/2019,5/3/2019,10989,19724,SAND,Bbl,152583,5984169,15,9025,56,37,48.18159038,-102.5670578
33061043310000,35569,WHITING OIL AND GAS CORPORATION,ANDERSON  11-7-2H,MOUNTRAIL,BAKKEN,6/24/2019,5/3/2019,10784,19861,SAND,Bbl,153732,5991105,15,9136,7611,37,48.18167262,-102.5670578
33105050050000,35566,"CONTINENTAL RESOURCES, INC.",GJORVEN  9-21H1,WILLIAMS,BAKKEN,7/20/2019,4/12/2019,11542,21344,SAND,Bbl,161212,6264553,NULL,9386,82,46,48.22772877,-103.2864683
33105050040000,35565,"CONTINENTAL RESOURCES, INC.",GJORVEN  10-21H,WILLIAMS,BAKKEN,7/22/2019,4/12/2019,11513,21254,SAND,NULL,NULL,NULL,NULL,NULL,NULL,46,48.22772843,-103.2862835
33105050030000,35564,"CONTINENTAL RESOURCES, INC.",GJORVEN  11-21H1,WILLIAMS,BAKKEN,7/25/2019,4/18/2019,11506,21375,SAND,NULL,NULL,NULL,NULL,NULL,NULL,46,48.22772808,-103.2860988
33105050020000,35563,"CONTINENTAL RESOURCES, INC.",GJORVEN 12-21HSL,WILLIAMS,BAKKEN,7/26/2019,4/19/2019,11468,21342,SAND,NULL,NULL,NULL,NULL,NULL,NULL,46,48.22772774,-103.285914
33105049900000,35551,"HESS BAKKEN INVESTMENTS II, LLC",SC-BARNEY-  154-98-1819H-6,WILLIAMS,BAKKEN,8/2/2019,6/15/2019,11876,21950,SAND,Bbl,229289,7576603,NULL,9362,62.1,30,48.1703231,-103.3269898
33025035900000,35550,"CONTINENTAL RESOURCES, INC.",CARUS  4-28H1,DUNN,BAKKEN,5/20/2019,3/10/2019,11909,22087,SAND,Bbl,282483,12752200,NULL,9601,82,42,47.51805984,-102.9149428
33025035890000,35549,"CONTINENTAL RESOURCES, INC.",CARUS  5-28H,DUNN,BAKKEN,5/23/2019,3/10/2019,11849,22011,SAND,Bbl,270493,12779262,NULL,9354,81,42,47.51805967,-102.9147605
33025035880000,35548,"CONTINENTAL RESOURCES, INC.",CARUS  6-28H1,DUNN,BAKKEN,5/25/2019,3/24/2019,11829,21880,SAND,Bbl,265201,12749846,NULL,9325,81,42,47.5180595,-102.9145781
33025035870000,35547,"CONTINENTAL RESOURCES, INC.",CARUS  7-28H,DUNN,BAKKEN,5/27/2019,3/24/2019,11693,21937,SAND,Bbl,266877,12746524,NULL,9458,82,42,47.51805933,-102.9143958
33053087600000,35546,"WPX ENERGY WILLISTON, LLC",DELORES SAND  29-32HD,MCKENZIE,SANISH,6/11/2019,5/24/2019,11157,20717,SAND,Gal,5652978,8283792,NULL,9349,105.2,40,47.87491218,-102.7356463
33053087590000,35545,"WPX ENERGY WILLISTON, LLC",DELORES SAND  29-32HZ,MCKENZIE,SANISH,6/13/2019,5/25/2019,11160,20763,SAND,Gal,5554486,8282833,NULL,9302,105.1,40,47.87495877,-102.7357485
33053087570000,35543,"WPX ENERGY WILLISTON, LLC",DELORES SAND  29-32HIL,MCKENZIE,SANISH,6/15/2019,5/25/2019,11346,20885,SAND,Bbl,5299480,8289562,NULL,9317,61.1,40,47.87505469,-102.7359643
33053087560000,35542,"BRUIN E&P OPERATING, LLC",FORT BERTHOLD  152-94-14D-2-13H3,MCKENZIE,SANISH,5/15/2019,4/13/2019,11075,26935,SAND,Bbl,370504,16078563,15,9452,72,67,47.97845305,-102.667908
33053087550000,35541,"BRUIN E&P OPERATING, LLC",FORT BERTHOLD  152-94-14D-2-15H3,MCKENZIE,SANISH,5/20/2019,4/12/2019,11180,26985,SAND,Bbl,311874,13437786,15,9750,69,67,47.97845286,-102.6680103
33053087540000,35540,"BRUIN E&P OPERATING, LLC",FORT BERTHOLD  152-94-14D-11-16H,MCKENZIE,SANISH,5/26/2019,3/28/2019,11144,21400,SAND,Bbl,191148,8705443,15,9432,64,54,47.97845522,-102.668215
33053087530000,35539,"BRUIN E&P OPERATING, LLC",FORT BERTHOLD  152-94-14D-11-19H,MCKENZIE,SANISH,5/7/2019,3/28/2019,11075,21240,SAND,Bbl,252144,12729262,15,9495,68,54,47.97845503,-102.6683172
33105049890000,35538,"CONTINENTAL RESOURCES, INC.",MCCLINTOCK  8-1H1,WILLIAMS,BAKKEN,2/18/2019,1/11/2019,10281,26291,SAND,Bbl,203206,8463590,NULL,9527,73,50,48.37181299,-102.8350849
33105049880000,35537,OASIS PETROLEUM NORTH AMERICA LLC,KJOS FEDERAL  5501 11-18 9BX,WILLIAMS,BAKKEN,6/9/2019,5/2/2019,10990,20803,SAND,Bbl,332340,5967770,NULL,9263,86,40,48.25518608,-103.7312496
33105049870000,35536,OASIS PETROLEUM NORTH AMERICA LLC,OM ERICKSON   5501 11-18 4B,WILLIAMS,BAKKEN,6/5/2019,5/1/2019,10996,20629,SAND,Bbl,322565,5981053,NULL,9026,85,40,48.25518569,-103.7309785
33061043300000,35535,OASIS PETROLEUM NORTH AMERICA LLC,MERRITT 5693 13-24 5T,MOUNTRAIL,BAKKEN,10/30/2019,8/31/2019,10590,20353,SAND,Bbl,309169,6008967,NULL,9129,86,40,48.32602831,-102.5759846
33061043290000,35534,OASIS PETROLEUM NORTH AMERICA LLC,MERRITT 5693 13-24 6B,MOUNTRAIL,BAKKEN,10/28/2019,8/31/2019,10366,19863,SAND,Bbl,305323,6016265,NULL,8951,87,40,48.32593785,-102.575984
33061043280000,35533,OASIS PETROLEUM NORTH AMERICA LLC,MERRITT 5693 13-24 7T,MOUNTRAIL,BAKKEN,10/27/2019,9/15/2019,10470,19883,SAND,Bbl,307019,6016130,NULL,9009,86,35,48.32584739,-102.5759834
33061043270000,35532,OASIS PETROLEUM NORTH AMERICA LLC,MERRITT 5693 13-24 8B,MOUNTRAIL,BAKKEN,10/28/2019,9/16/2019,10375,20032,SAND,Bbl,308553,6007510,NULL,9119,87,35,48.32575693,-102.5759827
33061043260000,35531,OASIS PETROLEUM NORTH AMERICA LLC,MERRITT 5693 13-24 9T,MOUNTRAIL,BAKKEN,10/22/2019,9/16/2019,10558,19878,SAND,Bbl,308995,6013887,NULL,8994,86,35,48.32566647,-102.5759821
33013018800000,35529,"LIME ROCK RESOURCES III-A, L.P.",WARD HILL 2-29-20H-160-90,BURKE,BAKKEN,8/6/2019,6/25/2019,8966,18808,SAND,Bbl,289132,9934690,15,7566,64,50,48.64947859,-102.3465619
33025035840000,35526,MARATHON OIL COMPANY,GWEN  44-36TFH,DUNN,BAKKEN,6/21/2019,5/31/2019,11283,21235,SAND,Bbl,168897,6536935,NULL,8664,65.5,45,47.41251859,-102.7168613
33025035830000,35525,MARATHON OIL COMPANY,HAYES  14-31H,DUNN,BAKKEN,6/22/2019,5/31/2019,11253,21094,SAND,Bbl,197807,8332234,NULL,8969,64.3,45,47.41238149,-102.7168586
33025035820000,35524,MARATHON OIL COMPANY,MASON  14-31TFH,DUNN,BAKKEN,6/20/2019,5/31/2019,11362,21315,SAND,Bbl,169874,6578782,NULL,8695,66,45,47.4122444,-102.7168559
33061043240000,35523,"HESS BAKKEN INVESTMENTS II, LLC",EN-DAVENPORT-  156-94-1003H-4,MOUNTRAIL,BAKKEN,9/21/2019,7/24/2019,10518,21188,SAND,Bbl,224073,12646065,NULL,9219,90,28,48.34084177,-102.7445281
33061043230000,35522,"HESS BAKKEN INVESTMENTS II, LLC",EN-DAVENPORT-  156-94-1003H-3,MOUNTRAIL,BAKKEN,9/25/2019,7/24/2019,10614,21244,SAND,Bbl,227231,12808329,NULL,9081,77.7,28,48.34083982,-102.7443924
33061043220000,35521,"HESS BAKKEN INVESTMENTS II, LLC",EN-DAVENPORT-  156-94-1003H-2,MOUNTRAIL,BAKKEN,9/28/2019,7/25/2019,10493,21058,SAND,Bbl,216786,12741934,NULL,9295,90,28,48.34083786,-102.7442566
33061043210000,35520,"HESS BAKKEN INVESTMENTS II, LLC",EN-DAVENPORT-  LE-156-94-1003H-1,MOUNTRAIL,BAKKEN,10/10/2019,8/8/2019,10541,21211,SAND,Bbl,180448,10005767,NULL,9338,91.5,28,48.3408359,-102.7441208
33061043200000,35519,"HESS BAKKEN INVESTMENTS II, LLC",EN-DAVENPORT- LE-156-94-1002H-2,MOUNTRAIL,BAKKEN,10/1/2019,8/8/2019,10510,21106,SAND,Bbl,242425,14638659,NULL,9339,90.9,28,48.34083395,-102.743985
33061043190000,35518,"HESS BAKKEN INVESTMENTS II, LLC",EN-PERSON-  156-94-1102H-5,MOUNTRAIL,BAKKEN,10/15/2019,8/8/2019,10676,21113,SAND,Bbl,240418,14644150,NULL,9183,90.5,28,48.34083199,-102.7438493
33061043180000,35517,"HESS BAKKEN INVESTMENTS II, LLC",EN-PERSON-  156-94-1102H-4,MOUNTRAIL,BAKKEN,10/19/2019,8/8/2019,10612,21291,SAND,Bbl,242151,14641216,NULL,9338,91.5,28,48.34083003,-102.7437135
33053087520000,35516,NEWFIELD PRODUCTION COMPANY,DAHL  150-98-5-8-12H,MCKENZIE,BAKKEN,4/4/2019,2/23/2019,11599,21795,SAND,Bbl,257174,76232002,NULL,9344,60.9,62,47.84703087,-103.2449588
33105049850000,35506,"CONTINENTAL RESOURCES, INC.",WEISZ 8-11H,WILLIAMS,BAKKEN,7/19/2019,5/23/2019,10283,20945,SAND,Bbl,204460,10462219,NULL,9426,82,43,48.3433374,-102.8556831
33105049840000,35505,"CONTINENTAL RESOURCES, INC.",WEISZ 7-11H1,WILLIAMS,BAKKEN,7/17/2019,5/23/2019,10361,21051,SAND,Bbl,153512,6022408,NULL,9589,81,43,48.34333657,-102.8558683
33105049830000,35504,"CONTINENTAL RESOURCES, INC.",WEISZ  6-11H,WILLIAMS,BAKKEN,7/16/2019,5/13/2019,10245,21012,SAND,Bbl,205608,10462328,NULL,9576,85,43,48.34333575,-102.8560535
33105049820000,35503,"CONTINENTAL RESOURCES, INC.",WEISZ  5-11H1,WILLIAMS,BAKKEN,7/14/2019,5/13/2019,10410,21188,SAND,Bbl,156983,6024225,NULL,9510,82,43,48.34333492,-102.8562387
33025035750000,35502,RIMROCK OIL & GAS WILLISTON LLC,MC MHA  24-10-3H,DUNN,BAKKEN,3/24/2019,1/16/2019,10922,15798,SAND,Gal,4072982,4988330,NULL,9471,93,23,47.56022959,-102.5154254
33025035740000,35501,RIMROCK OIL & GAS WILLISTON LLC,MC MHA  24-10-3TFH,DUNN,BAKKEN,3/19/2019,1/16/2019,10920,15730,SAND,Gal,3941891,4994305,NULL,3508,92,23,47.56029514,-102.5154984
33025035730000,35500,RIMROCK OIL & GAS WILLISTON LLC,MC MHA  24-10-2TFH,DUNN,BAKKEN,3/19/2019,1/16/2019,10595,15531,SAND,Gal,3892913,4978891,NULL,9516,92,23,47.56036068,-102.5155715
33025035720000,35499,RIMROCK OIL & GAS WILLISTON LLC,MC MHA  24-10HU,DUNN,BAKKEN,3/19/2019,1/29/2019,11051,21032,SAND,Gal,8770866,12626364,NULL,9805,92,46,47.56062011,-102.5158635
33105049810000,35496,WHITING OIL AND GAS CORPORATION,JACKMAN  34-11-3TFH,WILLIAMS,BAKKEN,7/23/2019,7/16/2019,10918,20406,SAND,Bbl,158155,5831399,NULL,9029,55.9,38,48.34378904,-103.5034299
33007019100000,35495,"CONTINENTAL RESOURCES, INC.",BURIAN 4-27H1,BILLINGS,BAKKEN,1/16/2019,12/29/2018,11011,21251,SAND,Bbl,196124,10033974,15,9510,67,62,47.00846242,-103.2043418
33105049800000,35479,"NINE POINT ENERGY, LLC",NORDTUG 155-102-23-14-2H,WILLIAMS,BAKKEN,9/27/2019,7/20/2019,10950,20978,SAND,Bbl,171821,10186139,NULL,9128,77.6,60,48.22771826,-103.7624075
33105049790000,35478,"NINE POINT ENERGY, LLC",NORDTUG 155-102-23-14-3H,WILLIAMS,BAKKEN,9/27/2019,7/20/2019,10995,21037,SAND,Bbl,140762,8285801,NULL,9827,77.1,60,48.22771835,-103.7623048
33105049770000,35476,"HESS BAKKEN INVESTMENTS II, LLC",SC-JCB-  LE-154-98-1721H-2,WILLIAMS,BAKKEN,8/15/2019,6/27/2019,11755,21880,SAND,Bbl,226577,9751049,NULL,9425,57.9,25,48.17159444,-103.306683
33105049760000,35463,WHITING OIL AND GAS CORPORATION,URBAN 44-11-6H,WILLIAMS,BAKKEN,6/12/2019,5/31/2019,11342,20703,SAND,Bbl,169844,7022824,NULL,8924,60.8,40,48.25672532,-103.3710524
33105049750000,35462,WHITING OIL AND GAS CORPORATION,URBAN  44-11-3H,WILLIAMS,BAKKEN,6/13/2019,5/31/2019,11333,21026,SAND,Bbl,171750,7057923,NULL,9132,60.8,40,48.25680756,-103.3710524
33105049740000,35461,"CONTINENTAL RESOURCES, INC.",WEISZ 2-11HSL,WILLIAMS,BAKKEN,7/23/2019,6/3/2019,10168,20510,SAND,Bbl,201981,10461449,NULL,9090,82,43,48.34315446,-102.869027
33105049730000,35460,"CONTINENTAL RESOURCES, INC.",WEISZ 3-11H1,WILLIAMS,BAKKEN,7/25/2019,6/2/2019,10525,21324,SAND,Bbl,152202,6022243,NULL,9392,81,43,48.34315529,-102.8688418
33105049720000,35459,"CONTINENTAL RESOURCES, INC.",WEISZ 4-11H,WILLIAMS,BAKKEN,7/27/2019,6/3/2019,10142,20955,SAND,Bbl,201930,10458828,NULL,8967,83,43,48.34315612,-102.8686566
33105049710000,35458,WHITING OIL AND GAS CORPORATION,URBAN   44-11-3TFH,WILLIAMS,BAKKEN,5/15/2019,5/29/2019,11317,21008,SAND,Bbl,161643,6356213,NULL,9129,56.1,40,48.25688979,-103.3710524
33053087380000,35457,"WPX ENERGY WILLISTON, LLC",MINOT GRADY  26-35HWL,MCKENZIE,BAKKEN,5/27/2019,4/27/2019,11258,21017,SAND,Gal,4732516,6062422,NULL,9348,97.7,40,47.70401256,-102.6689669
33013018770000,35447,"LIME ROCK RESOURCES III-A, L.P.",NORDLOEF 4-30-19TFH-160-90L,BURKE,BAKKEN,8/4/2019,6/26/2019,8975,18695,SAND,Bbl,294049,10252892,15,7553,64,50,48.64958823,-102.3465614
33053087360000,35446,"WPX ENERGY WILLISTON, LLC",HONEY LOCUST  18-19HIL,MCKENZIE,BAKKEN,2/6/2019,1/9/2019,11598,21112,SAND,Gal,6637750,8495321,NULL,9267,83,49,47.73110916,-102.7581108
33105049650000,35432,"CONTINENTAL RESOURCES, INC.",SYVERSON  4-12H,WILLIAMS,BAKKEN,1/21/2019,12/13/2018,10891,21519,SAND,Bbl,194708,10716391,NULL,9322,82,58,48.34318635,-103.491553
33105049640000,35430,"KRAKEN OPERATING, LLC",KNOX-RUBY 16-21 LW  #1H ,WILLIAMS,BAKKEN,10/6/2019,6/17/2019,9877,20046,SAND,Bbl,205131,191600,NULL,9122,83,60,48.51877261,-103.6227392
33105049630000,35429,"KRAKEN OPERATING, LLC",KNOX 16-21   #2TFH ,WILLIAMS,BAKKEN,9/18/2019,6/17/2019,9922,20097,SAND,Bbl,207206,10154260,NULL,9088,81.9,60,48.51877386,-103.622603
33105049620000,35428,"KRAKEN OPERATING, LLC",KNOX 16-21   #3H ,WILLIAMS,BAKKEN,9/18/2019,6/4/2019,9869,20060,SAND,Bbl,209466,10154310,NULL,9093,82.8,60,48.5187751,-103.6224667
33105049610000,35427,"KRAKEN OPERATING, LLC",KNOX 16-21   #4TFH ,WILLIAMS,BAKKEN,9/18/2019,6/3/2019,9984,20156,SAND,Bbl,212248,10153704,NULL,9093,81.6,60,48.51877635,-103.6223304
33105049600000,35426,"KRAKEN OPERATING, LLC",KNOX 16-21   #5H ,WILLIAMS,BAKKEN,9/17/2019,6/3/2019,10082,20314,SAND,Bbl,214620,10154376,NULL,9454,82.1,60,48.51877759,-103.6221941
33105049560000,35418,"KRAKEN OPERATING, LLC",DRAGSETH 9-4  #3H,WILLIAMS,BAKKEN,9/25/2019,7/5/2019,9861,20014,SAND,Bbl,208562,10155070,NULL,9231,82.7,60,48.51671927,-103.6224657
33105049550000,35417,"KRAKEN OPERATING, LLC",DRAGSETH 9-4  #4H,WILLIAMS,BAKKEN,9/25/2019,6/27/2019,9860,20021,SAND,Bbl,206691,10155130,NULL,9126,81,60,48.51672052,-103.6223295
33105049540000,35416,"KRAKEN OPERATING, LLC",DRAGSETH 9-4  #5H,WILLIAMS,BAKKEN,9/17/2019,6/27/2019,10028,20181,SAND,Bbl,208684,10154500,NULL,9142,80.9,60,48.51672176,-103.6221932
33105049530000,35415,"KRAKEN OPERATING, LLC",DRAGSETH 9-4  #6TFH,WILLIAMS,BAKKEN,9/17/2019,6/27/2019,10193,20368,SAND,Bbl,209665,10154340,NULL,9264,81,60,48.51672301,-103.622057
33061042820000,35398,"HESS BAKKEN INVESTMENTS II, LLC",RS-AADNES-  157-91-2829H-4,MOUNTRAIL,BAKKEN,9/17/2019,8/3/2019,9771,19782,SAND,Bbl,396139,16038873,NULL,8938,77.4,31,48.4003222,-102.4329374
33061042810000,35397,"HESS BAKKEN INVESTMENTS II, LLC",RS-AADNES-  157-91-2829H-3,MOUNTRAIL,BAKKEN,9/16/2019,8/3/2019,9882,19963,SAND,Bbl,249275,12840732,NULL,9101,82.1,31,48.40023175,-102.4329377
33061042800000,35396,"HESS BAKKEN INVESTMENTS II, LLC",RS-AADNES-  157-91-2829H-2,MOUNTRAIL,BAKKEN,9/8/2019,8/3/2019,9865,19917,SAND,Bbl,395213,16043138,NULL,9101,86.2,31,48.40014129,-102.432938
33053087250000,35391,NEWFIELD PRODUCTION COMPANY,DAHL  150-98-5-8-7H,MCKENZIE,BAKKEN,4/6/2019,2/16/2019,11528,21685,SAND,Bbl,259711,7273747,NULL,9068,63,62,47.84703263,-103.2452034
33053087230000,35389,NEWFIELD PRODUCTION COMPANY,GOLIATH  150-98-5-8-6H,MCKENZIE,BAKKEN,4/27/2019,3/7/2019,11600,21835,SAND,Bbl,238856,10175375,NULL,9225,53.2,62,47.84686934,-103.2476565
33053087120000,35378,NEWFIELD PRODUCTION COMPANY,SKIPJACK  149-98-11-2-4H,MCKENZIE,BAKKEN,6/12/2019,4/17/2019,17786,21444,SAND,Bbl,93189,2572710,NULL,9202,56.9,15,47.73361566,-103.188053
33053087110000,35377,NEWFIELD PRODUCTION COMPANY,SKIPJACK  149-98-11-2-5H,MCKENZIE,BAKKEN,6/6/2019,4/4/2019,11769,21980,SAND,Bbl,233517,7161014,NULL,9077,64.5,62,47.73361548,-103.188175
33053087100000,35374,WHITING OIL AND GAS CORPORATION,KNUT BERG TRUST  41-28-2H,MCKENZIE,BAKKEN,4/7/2019,3/14/2019,11680,21318,SAND,Bbl,176527,6931559,15,8980,60.2,38,47.70202021,-103.2223353
33053087090000,35373,WHITING OIL AND GAS CORPORATION,KNUT BERG TRUST  41-28H,MCKENZIE,BAKKEN,4/5/2019,3/15/2019,10693,20886,SAND,Bbl,172199,6015922,15,9089,55.5,36,47.70201978,-103.2221524
33053087080000,35372,WHITING OIL AND GAS CORPORATION,KNUT BERG TRUST  41-28HU,MCKENZIE,BAKKEN,4/4/2019,3/14/2019,11744,20946,SAND,Bbl,188829,8058054,15,9172,54.7,36,47.70201936,-103.2219695
33013018740000,35371,"LIBERTY RESOURCES MANAGEMENT COMPANY, LLC",PATRICIA W  159-94-12-24-2MBHX,BURKE,BAKKEN,1/3/2019,12/5/2018,9683,25103,SAND,Bbl,283508,16000002,15,8909,93,40,48.61778205,-102.7676225
33025035710000,35361,HUNT OIL COMPANY,HALLIDAY 146-92-19-18H-  6,DUNN,BAKKEN,7/19/2019,6/21/2019,11080,19930,SAND,Bbl,310898,8444496,15,8300,70,34,47.44491372,-102.4451531
33025035700000,35360,HUNT OIL COMPANY,HALLIDAY 146-92-19-18H-  5,DUNN,BAKKEN,7/12/2019,6/20/2019,11095,19705,SAND,Bbl,272851,7374884,15,7910,77.3,29,47.44491343,-102.4452745
33025035690000,35359,HUNT OIL COMPANY,HALLIDAY 146-92-19-18H-  4,DUNN,BAKKEN,7/12/2019,6/19/2019,11155,19625,SAND,Bbl,270038,7295737,15,8130,72,29,47.44491315,-102.4453958
33061042790000,35353,"HESS BAKKEN INVESTMENTS II, LLC",RS-STATE D-  LN-155-92-0203H-1,MOUNTRAIL,BAKKEN,8/27/2019,7/11/2019,10165,20383,SAND,Bbl,118347,8407211,NULL,8994,89.5,40,48.2826136,-102.4636781
33061042780000,35352,"HESS BAKKEN INVESTMENTS II, LLC",RS-STATE D-  155-92-0203H-2,MOUNTRAIL,BAKKEN,8/31/2019,7/10/2019,10249,20405,SAND,Bbl,119372,8442139,NULL,8920,90.9,41,48.28252314,-102.463679
33061042770000,35351,"HESS BAKKEN INVESTMENTS II, LLC",RS-STATE D-  155-92-0203H-3,MOUNTRAIL,BAKKEN,9/5/2019,7/11/2019,10216,20450,SAND,Bbl,121207,8424051,NULL,8897,87.7,40,48.28243269,-102.46368
33061042760000,35350,"HESS BAKKEN INVESTMENTS II, LLC",RS-STATE D-  155-92-0203H-4,MOUNTRAIL,BAKKEN,9/10/2019,4/7/2019,10350,20475,SAND,Bbl,121289,8418024,NULL,8556,81.6,40,48.28234224,-102.4636809
33061042750000,35349,"HESS BAKKEN INVESTMENTS II, LLC",RS-STATE D-  155-92-0203H-5,MOUNTRAIL,BAKKEN,9/16/2019,7/24/2019,10255,20493,SAND,Bbl,123507,8410443,NULL,8665,8406,40,48.28225178,-102.4636819
33061042740000,35348,"CONTINENTAL RESOURCES, INC.",SORENSON  11-16H,MOUNTRAIL,BAKKEN,4/5/2019,1/30/2019,11085,16303,SAND,Bbl,122057,7152396,NULL,9145,84,27,48.16735369,-102.7833991
33061042730000,35347,"CONTINENTAL RESOURCES, INC.",SORENSON  10-16H1,MOUNTRAIL,BAKKEN,4/5/2019,1/30/2019,11123,16838,SAND,Bbl,123917,7175133,NULL,9329,80,29,48.16735437,-102.7835837
33105049370000,35342,"KRAKEN OPERATING, LLC",BLACK FEDERAL 33-28  #2TFH,WILLIAMS,BAKKEN,3/2/2019,1/5/2019,11092,21249,SAND,Bbl,262217,12444500,NULL,9467,81.4,60,48.37344283,-103.3592811
33105049360000,35341,"KRAKEN OPERATING, LLC",BLACK FEDERAL 33-28  #3H,WILLIAMS,BAKKEN,2/22/2019,1/5/2019,10909,21062,SAND,Bbl,262403,12445030,NULL,9092,82.2,60,48.37344259,-103.3591451
33105049350000,35340,"KRAKEN OPERATING, LLC",BLACK FEDERAL 33-28  #4TFH,WILLIAMS,BAKKEN,3/2/2019,12/17/2018,14677,21147,SAND,Bbl,170419,9658750,NULL,9510,82.6,40,48.37344234,-103.3590091
33105049340000,35339,"KRAKEN OPERATING, LLC",BLACK FEDERAL 33-28  #5H,WILLIAMS,BAKKEN,2/22/2019,12/18/2018,10984,21146,SAND,Bbl,268900,15293180,NULL,9336,83.7,60,48.3734421,-103.358873
33105049330000,35338,"KRAKEN OPERATING, LLC",BLACK FEDERAL 33-28  #6TFH,WILLIAMS,BAKKEN,2/22/2019,12/17/2018,11120,21276,SAND,Bbl,276383,15393450,NULL,9264,83.5,60,48.37344185,-103.358737
33061042720000,35337,"HESS BAKKEN INVESTMENTS II, LLC",EN-DOBROVOLNY A-  LE-155-94-1319H-1,MOUNTRAIL,BAKKEN,11/22/2019,10/10/2019,10844,20911,SAND,Bbl,154270,10002700,NULL,9255,91.9,30,48.25437337,-102.7050547
33061042700000,35335,"HESS BAKKEN INVESTMENTS II, LLC",EN-RULAND A-  155-94-1201H-4,MOUNTRAIL,BAKKEN,12/1/2019,10/18/2019,10817,20850,SAND,Bbl,151489,9936796,NULL,9325,91.8,30,48.25437421,-102.7053258
33061042680000,35333,MARATHON OIL COMPANY,ESTENSON USA  11-2TFH,MOUNTRAIL,BAKKEN,9/20/2019,8/11/2019,11088,20638,SAND,Bbl,196990,8521725,NULL,8552,47,45,47.93251603,-102.5534092
33061042670000,35332,MARATHON OIL COMPANY,TOMMERDAHL USA  11-2H,MOUNTRAIL,BAKKEN,9/6/2019,8/12/2019,11011,20526,SAND,Bbl,196154,8607423,NULL,8929,62.2,45,47.93251614,-102.5536133
33061042660000,35331,MARATHON OIL COMPANY,DIETRICH USA  11-2TFH,MOUNTRAIL,BAKKEN,9/1/2019,8/11/2019,11125,20627,SAND,Bbl,197235,8515493,NULL,8825,47.6,45,47.93251626,-102.5538174
33061042650000,35330,MARATHON OIL COMPANY,HOLMGREN   41-3H,MOUNTRAIL,BAKKEN,9/18/2019,8/12/2019,10995,20697,SAND,Bbl,196606,8527149,NULL,8962,62.4,45,47.93251637,-102.5540216
33105049320000,35328,"KRAKEN OPERATING, LLC",POCASSET LW 32-29  #1H,WILLIAMS,BAKKEN,1/24/2019,11/12/2018,10983,21138,SAND,Bbl,265393,15371340,NULL,9143,83.1,60,48.3716536,-103.3811069
33105049310000,35327,"KRAKEN OPERATING, LLC",POCASSET 32-29  #4TFH,WILLIAMS,BAKKEN,1/24/2019,11/12/2018,10990,21149,SAND,Bbl,267624,15370940,NULL,9072,84.3,60,48.3716535,-103.3809711
33105049300000,35326,"KRAKEN OPERATING, LLC",POCASSET 32-29  #5H,WILLIAMS,BAKKEN,2/2/2019,11/12/2018,10876,21044,SAND,Bbl,274699,15619600,NULL,9112,89.6,60,48.3716534,-103.3808352
33105049290000,35325,"KRAKEN OPERATING, LLC",POCASSET 32-29  #6TFH,WILLIAMS,BAKKEN,2/1/2019,11/28/2018,10893,21056,SAND,Bbl,262200,15372780,NULL,9317,87.7,60,48.3716533,-103.3806994
33105049280000,35324,"KRAKEN OPERATING, LLC",POCASSET 32-29  #7H,WILLIAMS,BAKKEN,2/1/2019,11/27/2018,10980,21145,SAND,Bbl,264140,15372940,NULL,9497,89.6,60,48.3716532,-103.3805635
33061042640000,35323,MARATHON OIL COMPANY,DRIFTWOOD USA   41-17H,MOUNTRAIL,BAKKEN,5/11/2019,4/14/2019,12780,22563,SAND,Bbl,247673,8537629,NULL,8773,67.4,45,47.82838691,-102.6113581
33061042630000,35322,MARATHON OIL COMPANY,EUNICE USA  11-16TFH,MOUNTRAIL,BAKKEN,5/20/2019,4/23/2019,11359,21235,SAND,Bbl,192396,6459275,NULL,8944,64.2,40,47.82344899,-102.5936922
33061042620000,35321,MARATHON OIL COMPANY,FLYNN USA   21-16TFH,MOUNTRAIL,BAKKEN,5/25/2019,4/23/2019,11320,21154,SAND,Bbl,193061,6558696,NULL,8958,63.8,40,47.823493,-102.5935176
33061042610000,35320,MARATHON OIL COMPANY,REYES USA  21-16H,MOUNTRAIL,BAKKEN,5/31/2019,5/3/2019,11255,21092,SAND,Bbl,200256,7953968,NULL,8922,61.2,40,47.82367457,-102.5927947
33061042600000,35319,MARATHON OIL COMPANY,SEARS USA  21-16TFH,MOUNTRAIL,BAKKEN,6/2/2019,5/4/2019,11359,21192,SAND,Bbl,180086,6538376,NULL,8839,61,40,47.82371858,-102.5926242
33061042590000,35318,MARATHON OIL COMPANY,GARTLAND USA  31-16H,MOUNTRAIL,BAKKEN,6/6/2019,5/4/2019,11346,21145,SAND,Bbl,198960,7968443,NULL,8883,61,40,47.82375985,-102.5924536
33053086980000,35317,OASIS PETROLEUM NORTH AMERICA LLC,MILDRED NELSON FEDERAL  5297 11-30 11TX,MCKENZIE,BAKKEN,7/5/2019,5/13/2019,11580,21194,SAND,Bbl,241072,3986689,NULL,9378,82,50,47.96223823,-103.153602
33053086970000,35316,OASIS PETROLEUM NORTH AMERICA LLC,MILDRED NELSON FEDERAL  5297 11-30 12BX,MCKENZIE,BAKKEN,7/8/2019,5/12/2019,11500,21151,SAND,Bbl,284268,5980397,NULL,9342,82,50,47.9622383,-103.1534672
33105049270000,35315,"CONTINENTAL RESOURCES, INC.",PUTNAM  11-25HSL,WILLIAMS,BAKKEN,4/3/2019,2/27/2019,11129,21362,SAND,Bbl,187060,9326936,NULL,9369,81,41,48.31282104,-103.4788361
33105049260000,35314,"CONTINENTAL RESOURCES, INC.",PUTNAM  10-25H1,WILLIAMS,BAKKEN,4/3/2019,2/26/2019,11168,21351,SAND,Bbl,159453,6306763,NULL,9271,81,41,48.31282079,-103.4790212
33105049250000,35313,"CONTINENTAL RESOURCES, INC.",PUTNAM  9-25H,WILLIAMS,BAKKEN,4/3/2019,2/27/2019,11066,21116,SAND,Bbl,184286,9313922,NULL,9389,83,41,48.31282054,-103.4792062
33105049240000,35312,"CONTINENTAL RESOURCES, INC.",PUTNAM  8-25H1,WILLIAMS,BAKKEN,3/29/2019,2/1/2019,11119,21271,SAND,Bbl,164687,6302594,NULL,9371,82,41,48.31282029,-103.4793912
33105049230000,35311,"CONTINENTAL RESOURCES, INC.",PUTNAM  7-25H,WILLIAMS,BAKKEN,3/25/2019,2/1/2019,11121,21329,SAND,Bbl,188038,9295404,NULL,9421,83,41,48.31282004,-103.4795763
33105049220000,35310,"CONTINENTAL RESOURCES, INC.",PUTNAM   6-25H1,WILLIAMS,BAKKEN,3/25/2019,2/1/2019,11237,21466,SAND,Bbl,159820,6301325,NULL,9358,81,41,48.31281978,-103.4797613
33105049210000,35306,"HESS BAKKEN INVESTMENTS II, LLC",BL-DOMY-  156-95-2932H-10,WILLIAMS,BAKKEN,6/3/2019,11/18/2019,10359,20622,SAND,Bbl,180650,9889489,NULL,9152,73,40,48.31448977,-102.9167074
33105049200000,35305,"HESS BAKKEN INVESTMENTS II, LLC",BL-DOMY- 156-95-2932H-9,WILLIAMS,BAKKEN,5/31/2019,1/6/2019,10276,20513,SAND,Bbl,165587,9856124,NULL,8925,67.5,40,48.31448921,-102.9168431
33105049190000,35304,"HESS BAKKEN INVESTMENTS II, LLC",BL-DOMY-  156-95-2932H-8,WILLIAMS,BAKKEN,5/28/2019,12/23/2018,10408,20648,SAND,Bbl,178311,9829145,NULL,9045,81.5,40,48.31448865,-102.9169788
33105049180000,35303,"HESS BAKKEN INVESTMENTS II, LLC",BL-DOMY-  156-95-2932H-7,WILLIAMS,BAKKEN,5/25/2019,3/19/2019,10358,20625,SAND,Bbl,176166,10008855,NULL,9009,79.3,40,48.31448808,-102.9171146
33105049170000,35302,"HESS BAKKEN INVESTMENTS II, LLC",BL-DOMY-  156-95-2932H-6,WILLIAMS,BAKKEN,5/22/2019,3/18/2019,10497,20406,SAND,Bbl,184968,9912725,NULL,9014,69.7,40,48.31448752,-102.9172503
33053086930000,35301,"WPX ENERGY WILLISTON, LLC",MINOT GRADY   26-35HY,MCKENZIE,BAKKEN,6/3/2019,5/7/2019,11313,21083,SAND,Gal,4471686,6081743,NULL,9302,100.8,40,47.70445036,-102.6693082
33053086920000,35300,"WPX ENERGY WILLISTON, LLC",MINOT GRADY   26-35HC,MCKENZIE,BAKKEN,6/1/2019,5/7/2019,11202,21039,SAND,Gal,4618743,6061526,NULL,9327,101.6,40,47.70437603,-102.6692513
33053086910000,35299,"WPX ENERGY WILLISTON, LLC",MINOT GRADY   26-35HT,MCKENZIE,BAKKEN,5/31/2019,5/7/2019,11247,20992,SAND,Gal,4407526,606059,NULL,9368,97.6,40,47.70430443,-102.6691944
33053086900000,35298,"WPX ENERGY WILLISTON, LLC",MINOT GRADY   26-35HD,MCKENZIE,BAKKEN,5/29/2019,5/7/2019,11143,21013,SAND,Gal,4574625,6050389,NULL,9308,101.3,40,47.70423009,-102.6691375
33053086890000,35297,"WPX ENERGY WILLISTON, LLC",MINOT GRADY   26-35HZ,MCKENZIE,BAKKEN,5/23/2019,4/27/2019,11253,20956,SAND,Gal,4769446,6061300,NULL,9324,97.6,40,47.70415849,-102.6690806
33053086880000,35296,"WPX ENERGY WILLISTON, LLC",MINOT GRADY   26-35HF,MCKENZIE,BAKKEN,5/25/2019,5/7/2019,11247,20992,SAND,Gal,44075260,606059,NULL,9368,97.6,40,47.70408416,-102.6690238
33025035680000,35295,BURLINGTON RESOURCES OIL & GAS COMPANY LP,MERIWETHER  1A MBH-ULW,DUNN,BAKKEN,9/1/2019,8/16/2019,11750,21742,SAND,Bbl,156657,7232120,15,9500,126,30,47.52608222,-102.8398542
33025035670000,35294,BURLINGTON RESOURCES OIL & GAS COMPANY LP,PRAIRIE ROSE  1A MBH-ULW,DUNN,BAKKEN,9/4/2019,8/16/2019,11750,20946,SAND,Bbl,146140,6728440,15,9456,100.9,28,47.52604336,-102.8400289
33053086870000,35291,WHITING OIL AND GAS CORPORATION,BERG TRUST FEDERAL 34-22TFHU,MCKENZIE,BAKKEN,2/26/2019,2/11/2019,13854,22020,SAND,Bbl,153911,8015360,15,9134,51.5,35,47.70292233,-103.2073609
33053086860000,35290,WHITING OIL AND GAS CORPORATION,BERG TRUST FEDERAL 34-22H,MCKENZIE,BAKKEN,2/28/2019,2/11/2019,11735,21911,SAND,Bbl,154012,7002880,15,9163,58.3,40,47.70286497,-103.2074491
33053086850000,35289,WHITING OIL AND GAS CORPORATION,BERG TRUST 34-22-3TFH,MCKENZIE,BAKKEN,3/3/2019,2/11/2019,11779,21565,SAND,Bbl,153029,7044320,15,9176,52.2,40,47.7028076,-103.2075333
33025035660000,35283,ENERPLUS RESOURCES USA CORPORATION,MULBERRY  149-93-21B-22H-TF,DUNN,BAKKEN,4/11/2019,4/11/2019,11296,21037,SAND,Bbl,191695,10245100,15,9195,93.3,42,47.71301282,-102.6011584
33025035650000,35282,ENERPLUS RESOURCES USA CORPORATION,BLACKBERRY  149-93-21B-22H,DUNN,BAKKEN,4/25/2019,4/25/2019,11143,21004,SAND,Bbl,159997,8247060,15,9294,93.5,42,47.71317967,-102.6012935
33025035640000,35281,ENERPLUS RESOURCES USA CORPORATION,BOXWOOD 149-93-21B-22H-TF,DUNN,BAKKEN,4/25/2019,4/25/2019,11360,20981,SAND,Bbl,155663,8045638,15,9381,97.9,41,47.71326447,-102.6013591
33025035630000,35280,ENERPLUS RESOURCES USA CORPORATION,MARIGOLD  149-93-21B-22H-LL,DUNN,BAKKEN,4/25/2019,4/25/2019,11194,21148,SAND,Bbl,238573,12571980,15,9239,98.9,43,47.71334927,-102.6014246
33105049150000,35278,WHITING OIL AND GAS CORPORATION,VANCE  41-17-2H,WILLIAMS,BAKKEN,10/13/2019,8/25/2019,11243,20658,SAND,Bbl,153961,6764300,NULL,8946,56.6,38,48.16800694,-103.1785421
33105049140000,35277,WHITING OIL AND GAS CORPORATION,VANCE FEDERAL  41-17-3TFH,WILLIAMS,BAKKEN,10/8/2019,8/24/2019,11223,20945,SAND,Bbl,137834,5874920,NULL,9039,56.2,39,48.16795189,-103.1784479
33105049130000,35276,WHITING OIL AND GAS CORPORATION,VANCE FEDERAL  41-17-4TFH,WILLIAMS,BAKKEN,10/6/2019,8/10/2019,11224,20275,SAND,Bbl,152020,6481799,NULL,9218,55.4,37,48.16789959,-103.1783537
33105049120000,35275,WHITING OIL AND GAS CORPORATION,VANCE FEDERAL  41-17H,WILLIAMS,BAKKEN,9/30/2019,8/10/2019,11141,20451,SAND,Bbl,146535,6662000,NULL,9099,56.3,14635,48.16784728,-103.1782595
33105049110000,35274,WHITING OIL AND GAS CORPORATION,VANCE FEDERAL  41-17TFHU,WILLIAMS,BAKKEN,9/29/2019,8/10/2019,11242,20536,SAND,Bbl,152918,6659500,NULL,9148,55.3,38,48.16779499,-103.1781694
33025035620000,35273,"CONTINENTAL RESOURCES, INC.",CARSON PEAK  5-35H2,DUNN,BAKKEN,1/31/2019,12/23/2018,11887,22156,SAND,Bbl,238435,11307033,NULL,9226,82,41,47.51838568,-102.8793177
33025035610000,35272,"CONTINENTAL RESOURCES, INC.",CARSON PEAK  4-35HSL,DUNN,BAKKEN,1/24/2019,12/23/2018,11882,21956,SAND,Bbl,357136,16127369,NULL,9525,81,40,47.51841516,-102.8794393
33053086790000,35271,PETROSHALE (US) INC.,BEAR CHASE  2MBH,MCKENZIE,BAKKEN,6/28/2019,5/2/2019,11289,21127,SAND,Bbl,306497,18843895,15,8556,70.6,55,47.7890964,-102.7616535
33053086780000,35270,PETROSHALE (US) INC.,BEAR CHASE  1TFH,MCKENZIE,BAKKEN,6/24/2019,5/1/2019,11289,21072,SAND,Bbl,255364,12717448,15,8808,70.7,57,47.78904938,-102.7617263
33053086770000,35269,PETROSHALE (US) INC.,BEAR CHASE  1MBH,MCKENZIE,BAKKEN,6/19/2019,4/30/2019,11089,20928,SAND,Bbl,301593,17733917,15,9115,70.7,52,47.78900236,-102.761799
33025035600000,35268,MARATHON OIL COMPANY,MCCRORY  44-35TFH,DUNN,BAKKEN,4/7/2019,1/22/2019,11183,21055,SAND,Bbl,151842,6045997,NULL,8917,65.9,45,47.41645467,-102.6146352
33025035590000,35267,MARATHON OIL COMPANY,CATHERINE  44-35H,DUNN,BAKKEN,4/12/2019,1/21/2019,11015,20972,SAND,Bbl,153438,5983490,NULL,9017,66.1,45,47.41646039,-102.614433
33053086760000,35260,"HESS BAKKEN INVESTMENTS II, LLC",BB-OLSON-  150-95-09H-7,MCKENZIE,BAKKEN,11/24/2019,10/23/2019,11048,15731,SAND,Bbl,108303,5093446,NULL,9136,91.6,12,47.81935296,-102.8394491
33053086750000,35259,"HESS BAKKEN INVESTMENTS II, LLC",BB-OLSON-  150-95-09H-8,MCKENZIE,BAKKEN,11/25/2019,10/23/2019,10905,15430,SAND,Bbl,107371,5129805,NULL,9334,92.1,12,47.81935371,-102.8393146
33053086740000,35258,"HESS BAKKEN INVESTMENTS II, LLC",BB-OLSON-  150-95-09H-9,MCKENZIE,BAKKEN,11/28/2019,10/23/2019,11044,15801,SAND,Bbl,109522,5130400,NULL,9472,91.4,12,47.81935445,-102.8391801
33053086730000,35257,"HESS BAKKEN INVESTMENTS II, LLC",BB-OLSON-  150-95-09H-10,MCKENZIE,BAKKEN,12/2/2019,10/18/2019,10944,15689,SAND,Bbl,106566,4882648,NULL,9179,92.2,12,47.8193552,-102.8390456
33053086720000,35256,"HESS BAKKEN INVESTMENTS II, LLC",BB-OLSON-  150-95-09H-11,MCKENZIE,BAKKEN,12/5/2019,10/14/2019,11033,15736,SAND,Bbl,111475,4980130,NULL,9342,91.9,13,47.81935594,-102.8389111
33053086710000,35255,"HESS BAKKEN INVESTMENTS II, LLC",BB-OLSON-  LE-150-95-09H-1,MCKENZIE,BAKKEN,12/5/2019,10/14/2019,11015,15474,SAND,Bbl,110045,4952393,NULL,9289,92.4,13,47.81935669,-102.8387766
33053086690000,35253,OASIS PETROLEUM NORTH AMERICA LLC,KELLOGG FEDERAL  5297 44-19 11B,MCKENZIE,BAKKEN,8/26/2019,7/28/2019,11455,21107,SAND,Bbl,305275,8018399,NULL,9228,87,40,47.96450815,-103.1367525
33053086680000,35252,OASIS PETROLEUM NORTH AMERICA LLC,KELLOGG FEDERAL  5297 44-19 12T,MCKENZIE,BAKKEN,8/28/2019,7/29/2019,11455,21208,SAND,Bbl,210546,4019478,NULL,9260,87,40,47.96450822,-103.1366177
33053086670000,35251,OASIS PETROLEUM NORTH AMERICA LLC,KELLOGG FEDERAL  5297 44-19 13BX,MCKENZIE,BAKKEN,8/31/2019,7/28/2019,11432,21124,SAND,Bbl,306184,8026919,NULL,9237,87,40,47.96450829,-103.1364829
33025035580000,35242,"WPX ENERGY WILLISTON, LLC",BADLANDS   5-32-29HT,DUNN,BAKKEN,5/16/2019,3/19/2019,10451,25121,SAND,Gal,21900483,28729769,NULL,9383,93.8,62,47.57277725,-102.2936653
33025035570000,35241,"WPX ENERGY WILLISTON, LLC",BADLANDS   4-33-28HA,DUNN,BAKKEN,5/20/2019,4/9/2019,10533,25007,SAND,Gal,22560355,28719471,NULL,9302,94.3,62,47.57271703,-102.2935798
33061042560000,35239,"LIME ROCK RESOURCES III-A, L.P.",ANDERSON  13-24-3TFH,MOUNTRAIL,BAKKEN,6/30/2019,6/10/2019,10370,20227,SAND,Bbl,291617,9961913,15,8629,63,50,48.25583423,-102.4599609
33061042550000,35238,"LIME ROCK RESOURCES III-A, L.P.",ANDERSON  13-24-4TFH,MOUNTRAIL,BAKKEN,7/5/2019,6/10/2019,10408,20315,SAND,Bbl,279692,9971278,15,8461,63,50,48.25592415,-102.4598662
33053086650000,35232,"NINE POINT ENERGY, LLC",HELLING 150-101-7-6-6H,MCKENZIE,BAKKEN,11/22/2019,11/5/2019,11130,20894,SAND,Bbl,182214,10101917,NULL,949,76.1,60,47.8205648,-103.6643066
33053086640000,35231,"NINE POINT ENERGY, LLC",HELLING 150-101-7-6-7H,MCKENZIE,BAKKEN,11/21/2019,11/5/2019,11290,20846,SAND,Bbl,178346,10102503,NULL,9175,77.1,60,47.82056475,-103.6644084
33053086610000,35227,"HESS BAKKEN INVESTMENTS II, LLC",BB-FEDERAL A-LS-  151-95-0915H-1,MCKENZIE,BAKKEN,10/14/2019,7/12/2019,10966,21480,SAND,Bbl,160192,10024543,NULL,8732,57.1,35,47.91383753,-102.8569019
33053086600000,35226,"HESS BAKKEN INVESTMENTS II, LLC",BB-FEDERAL A-LS-  151-95-0915H-2,MCKENZIE,BAKKEN,10/9/2019,7/12/2019,10926,21367,SAND,Bbl,159018,10081671,NULL,8803,66.4,30,47.91376356,-102.8569752
33053086590000,35225,"HESS BAKKEN INVESTMENTS II, LLC",BB-FEDERAL A-LS-  151-95-0915H-3,MCKENZIE,BAKKEN,10/18/2019,7/12/2019,11055,21516,SAND,Bbl,156546,10034328,NULL,8977,72.6,30,47.91368684,-102.8570485
33053086580000,35224,"HESS BAKKEN INVESTMENTS II, LLC",BB-FEDERAL A-LS-  151-95-0915H-4,MCKENZIE,BAKKEN,10/15/2019,8/26/2019,11023,21551,SAND,Bbl,177094,10040131,NULL,9327,90.8,30,47.91361013,-102.8571218
33053086570000,35223,"HESS BAKKEN INVESTMENTS II, LLC",BB-FEDERAL A-LS-  151-95-0915H-5,MCKENZIE,BAKKEN,10/26/2019,8/27/2019,11023,21445,SAND,Bbl,173473,10087600,NULL,9128,90.8,30,47.91353616,-102.8571952
33053086560000,35222,"HESS BAKKEN INVESTMENTS II, LLC",BB-FEDERAL A-LS-  151-95-0915H-6,MCKENZIE,BAKKEN,10/19/2019,8/27/2019,11021,21534,SAND,Bbl,177486,10142390,NULL,9203,90.6,30,47.91345944,-102.8572685
33105048910000,35221,"KRAKEN OPERATING, LLC",GOODMAN LE 36-25  #1H,WILLIAMS,BAKKEN,12/10/2018,11/3/2018,11013,20715,SAND,Bbl,259414,15316582,NULL,9485,81.2,70,48.19691843,-103.8723764
33105048900000,35210,WHITING OIL AND GAS CORPORATION,MOLINE  21-14-1TFH,WILLIAMS,BAKKEN,4/20/2019,4/1/2019,10735,20371,SAND,Bbl,163777,6198145,NULL,8951,57.3,38,48.3417459,-103.6396509
33105048890000,35209,WHITING OIL AND GAS CORPORATION,MOLINE  21-14-2H,WILLIAMS,BAKKEN,4/22/2019,4/1/2019,10658,20221,SAND,Bbl,166614,6923325,NULL,8893,60.9,37,48.34166367,-103.6396506
33105048880000,35208,WHITING OIL AND GAS CORPORATION,MOLINE  21-14-3H,WILLIAMS,BAKKEN,4/24/2019,3/24/2019,10703,20471,SAND,Bbl,172128,7154350,NULL,8992,61.3,38,48.3414992,-103.6396499
33105048870000,35207,WHITING OIL AND GAS CORPORATION,MOLINE  21-14-2TFH,WILLIAMS,BAKKEN,4/27/2019,3/23/2019,10746,19801,SAND,Bbl,157030,6026720,NULL,8951,51.6,37,48.34141697,-103.6396496
33061042540000,35206,"SLAWSON EXPLORATION COMPANY, INC.",STALLION FEDERAL  1 SLH,MOUNTRAIL,BAKKEN,7/1/2019,6/7/2019,10719,20343,SAND,Bbl,271613,9533674,NULL,8978,43.9,45,47.93336347,-102.5337096
33061042530000,35205,"SLAWSON EXPLORATION COMPANY, INC.",STALLION FEDERAL  5 SLTFH,MOUNTRAIL,BAKKEN,7/1/2019,6/7/2019,10762,20423,SAND,Bbl,267056,9566586,NULL,8952,43.8,45,47.93336502,-102.5335055
33025035460000,35203,"WPX ENERGY WILLISTON, LLC",NORTH MABEL  2-35HW,DUNN,BAKKEN,3/22/2019,2/14/2019,11211,20925,SAND,Gal,6586926,8492763,NULL,9233,82.1,50,47.74433313,-102.5522109
33025035440000,35201,"WPX ENERGY WILLISTON, LLC",NORTH MABEL  2-35HB,DUNN,BAKKEN,3/20/2019,2/14/2019,11108,21036,SAND,Gal,6430462,8496117,NULL,9257,82.1,50,47.74441274,-102.5521649
33025035430000,35200,"WPX ENERGY WILLISTON, LLC",NORTH MABEL  2-35HS,DUNN,BAKKEN,3/19/2019,2/14/2019,11171,20979,SAND,Gal,5997190,8493304,NULL,9251,82.4,50,47.7444896,-102.552123
33025035420000,35199,"WPX ENERGY WILLISTON, LLC",NORTH MABEL  2-35HF,DUNN,BAKKEN,3/18/2019,2/28/2019,11165,21011,SAND,Gal,6283393,8500934,NULL,9336,82.6,50,47.74456646,-102.552077
33025035410000,35198,"WPX ENERGY WILLISTON, LLC",NORTH MABEL  2-35HT,DUNN,BAKKEN,3/18/2019,2/28/2019,11265,21095,SAND,Gal,6268612,8500372,NULL,9348,82.6,50,47.74464333,-102.552031
33105048860000,35197,"HESS BAKKEN INVESTMENTS II, LLC",CA-E BURDICK-  LE-155-95-2017H-1,WILLIAMS,BAKKEN,3/23/2019,12/29/2018,10049,19895,SAND,Bbl,168203,10151169,NULL,8555,95,34,48.22754175,-102.9186123
33105048850000,35196,WHITING OIL AND GAS CORPORATION,JACKMAN  34-11-4H,WILLIAMS,BAKKEN,7/24/2019,7/16/2019,10892,20308,SAND,Bbl,165472,6859371,NULL,9089,56.3,38,48.34378929,-103.5032448
33105048840000,35195,WHITING OIL AND GAS CORPORATION,JACKMAN  34-11-4TFH,WILLIAMS,BAKKEN,7/26/2019,7/9/2019,9941,20955,SAND,Bbl,160854,6037140,NULL,9053,56,39,48.34378954,-103.5030596
33105048830000,35194,WHITING OIL AND GAS CORPORATION,JACKMAN  34-11-5HU,WILLIAMS,BAKKEN,7/28/2019,7/9/2019,11510,20818,SAND,Bbl,176490,7559300,NULL,8918,56.6,37,48.34378979,-103.5028744
33061042510000,35186,"HESS BAKKEN INVESTMENTS II, LLC",EN-SORENSON A-  LW-154-94-0211H-1,MOUNTRAIL,BAKKEN,5/9/2019,3/21/2019,10846,20825,SAND,Bbl,183061,10046158,NULL,9186,91.2,37,48.19889152,-102.7412178
33061042500000,35185,"HESS BAKKEN INVESTMENTS II, LLC",EN-SORENSON A-  154-94-0211H-9,MOUNTRAIL,BAKKEN,5/4/2019,3/22/2019,10690,20699,SAND,Bbl,170603,10055606,NULL,9117,90.9,36,48.1988913,-102.7410536
33061042490000,35184,"HESS BAKKEN INVESTMENTS II, LLC",EN-SORENSON A-  154-94-0211H-8,MOUNTRAIL,BAKKEN,4/28/2019,3/21/2019,10851,20878,SAND,Bbl,182575,10003568,NULL,9191,90.7,37,48.19889108,-102.7408894
33025035400000,35178,MARATHON OIL COMPANY,STATE ETTA  44-36H,DUNN,BAKKEN,6/25/2019,5/20/2019,11234,21178,SAND,Bbl,234057,7492067,NULL,9053,58.3,45,47.41601354,-102.7241927
33025035390000,35177,MARATHON OIL COMPANY,STATE ELIAS  34-36TFH,DUNN,BAKKEN,6/26/2019,5/29/2019,11258,21243,SAND,Bbl,217534,6370985,NULL,9041,62.9,45,47.41601458,-102.7243948
33025035380000,35176,MARATHON OIL COMPANY,STATE EILEEN  34-36TFH,DUNN,BAKKEN,7/4/2019,6/3/2019,11247,21190,SAND,Bbl,199770,6544762,NULL,8631,60.5,45,47.41601562,-102.724597
33025035370000,35175,MARATHON OIL COMPANY,STATE EGGERT  24-36H,DUNN,BAKKEN,7/5/2019,6/3/2019,11342,21287,SAND,Bbl,220294,7855381,NULL,8887,60.4,45,47.41601666,-102.7247992
33105048820000,35173,"ZAVANNA, LLC",GEORGE  19-30 7TFH,WILLIAMS,BAKKEN,4/17/2019,2/28/2019,11441,20959,SAND,Bbl,193579,4971170,NULL,9448,96,46,48.15355605,-103.4652876
33105048810000,35172,"ZAVANNA, LLC",GEORGE  19-30 6H,WILLIAMS,BAKKEN,4/15/2019,2/28/2019,11406,20931,SAND,Bbl,203804,6000330,NULL,9292,98,40,48.15355628,-103.4655336
33105048790000,35170,"ZAVANNA, LLC",GEORGE  19-25 2HXW,WILLIAMS,BAKKEN,4/10/2019,3/11/2019,11725,21245,SAND,Bbl,198288,5918600,NULL,9191,96.1,40,48.15355675,-103.4660256
33105048780000,35169,"KRAKEN OPERATING, LLC",CASS 4-9  #2TFH,WILLIAMS,BAKKEN,4/21/2019,3/7/2019,10793,20965,SAND,Bbl,211901,10154370,NULL,9144,81.4,60,48.46046135,-103.3400682
33105048770000,35168,"KRAKEN OPERATING, LLC",CASS 4-9  #3H,WILLIAMS,BAKKEN,4/20/2019,3/7/2019,10688,20841,SAND,Bbl,210399,10153900,NULL,9334,81.2,60,48.46046185,-103.3399321
33105048760000,35167,"KRAKEN OPERATING, LLC",CASS SUTTON LE 4-9  #1TFH,WILLIAMS,BAKKEN,4/29/2019,4/1/2019,10750,20624,SAND,Bbl,201274,10154470,NULL,9297,81.9,60,48.46046233,-103.3398001
33105048750000,35166,"KRAKEN OPERATING, LLC",SUTTON 3-10  #4H,WILLIAMS,BAKKEN,4/21/2019,3/19/2019,10602,20426,SAND,Bbl,201022,10154874,NULL,9105,82.4,60,48.46046285,-103.3396598
33105048740000,35165,"KRAKEN OPERATING, LLC",SUTTON 3-10  #5TFH,WILLIAMS,BAKKEN,4/29/2019,4/1/2019,10730,20858,SAND,Bbl,206473,10183746,NULL,9444,83.6,60,48.46046335,-103.3395237
33025035360000,35164,HUNT OIL COMPANY,HALLIDAY 146-92-19-18H-  3,DUNN,BAKKEN,7/20/2019,7/3/2019,10810,20380,SAND,Bbl,323069,9289444,15,8615,65.1,40,47.4433025,-102.4543672
33053086400000,35160,"CONTINENTAL RESOURCES, INC.",PITTSBURGH 11-18H1,MCKENZIE,BAKKEN,9/15/2019,8/18/2019,11497,21717,SAND,Bbl,196963,7694798,NULL,9092,72,43,47.99218623,-103.4032587
33053086390000,35159,"CONTINENTAL RESOURCES, INC.",PITTSBURGH 10-18H,MCKENZIE,BAKKEN,9/15/2019,8/7/2019,11375,21656,SAND,Bbl,227921,9910207,NULL,9165,72,43,47.99208047,-103.4033579
33053086370000,35149,"HESS BAKKEN INVESTMENTS II, LLC",BB-EIDE-  151-95-3328H-8,MCKENZIE,BAKKEN,6/28/2019,5/2/2019,10898,21176,SAND,Bbl,169393,9970811,NULL,9242,92,31,47.84604265,-102.8509963
33053086360000,35142,WHITING OIL AND GAS CORPORATION,STENEHJEM  44-7H,MCKENZIE,BAKKEN,12/6/2018,12/3/2018,11512,20912,SAND,Bbl,167007,7034782,15,8926,55.7,35,47.73303433,-103.2647669
33053086350000,35141,WHITING OIL AND GAS CORPORATION,STENEHJEM  44-7-2H,MCKENZIE,BAKKEN,12/8/2018,12/3/2018,11831,21073,SAND,Bbl,173231,7030040,15,9201,56.9,35,47.7330345,-103.2645839
33105048670000,35134,WHITING OIL AND GAS CORPORATION,DAM STATE  44-9-6H,WILLIAMS,BAKKEN,5/13/2019,4/14/2019,11425,21731,SAND,Bbl,175549,7180500,NULL,9007,60.7,38,48.25350575,-103.4143093
33105048660000,35133,WHITING OIL AND GAS CORPORATION,DAM STATE  41-16-4TFH,WILLIAMS,BAKKEN,5/9/2019,4/13/2019,11350,20422,SAND,Bbl,155080,6013640,NULL,9013,56.2,36,48.25350931,-103.4148925
33105048650000,35132,WHITING OIL AND GAS CORPORATION,DAM STATE  41-16-3H,WILLIAMS,BAKKEN,5/10/2019,4/14/2019,11408,20215,SAND,Bbl,165180,6984204,NULL,8936,62.6,36,48.25350957,-103.4150773
33105048640000,35129,WHITING OIL AND GAS CORPORATION,OPPEGAARD   43-9H,WILLIAMS,BAKKEN,9/6/2019,7/28/2019,11004,19448,SAND,Bbl,139285,5876953,NULL,9012,56.2,34,48.17366004,-103.153653
33105048630000,35128,WHITING OIL AND GAS CORPORATION,OPPEGAARD   43-9-2H,WILLIAMS,BAKKEN,9/1/2019,7/28/2019,11105,18735,SAND,Bbl,149317,7072401,NULL,9198,55.1,31,48.17365947,-103.1535299
33053086210000,35120,OASIS PETROLEUM NORTH AMERICA LLC,NORDENG  5298 13-25 9T,MCKENZIE,BAKKEN,6/24/2019,4/20/2019,11625,21599,SAND,Bbl,324526,3943372,NULL,9132,82,50,47.96253281,-103.1602723
33053086200000,35118,OASIS PETROLEUM NORTH AMERICA LLC,KELLOGG FEDERAL  5297 11-30 2BX,MCKENZIE,BAKKEN,7/14/2019,5/30/2019,11570,21545,SAND,Bbl,271652,6001808,NULL,9400,86,40,47.96223837,-103.1533324
33053086190000,35117,OASIS PETROLEUM NORTH AMERICA LLC,KELLOGG FEDERAL  5297 11-30 3T,MCKENZIE,BAKKEN,7/14/2019,5/30/2019,11605,21577,SAND,Bbl,235825,3996378,NULL,9294,87,40,47.96223843,-103.1531976
33053086180000,35116,OASIS PETROLEUM NORTH AMERICA LLC,KELLOGG FEDERAL 5297 11-30 4B,MCKENZIE,BAKKEN,8/2/2019,6/20/2019,11520,21653,SAND,Bbl,260105,5939320,NULL,9167,87,40,47.9622385,-103.1530628
33053086170000,35115,OASIS PETROLEUM NORTH AMERICA LLC,KELLOGG FEDERAL 5297 11-30 5T,MCKENZIE,BAKKEN,7/30/2019,6/20/2019,11882,22105,SAND,Bbl,213302,3974253,NULL,9331,86,40,47.96223857,-103.152928
33053086150000,35113,ABRAXAS PETROLEUM CORP.,LILLIBRIDGE 20-17-  16H,MCKENZIE,BAKKEN,6/25/2019,5/17/2019,11390,20721,SAND,Bbl,191100,7802310,NULL,9015,65.9,60,47.79162978,-102.9983573
33053086140000,35112,ABRAXAS PETROLEUM CORP.,LILLIBRIDGE 20-17-  15H,MCKENZIE,BAKKEN,6/22/2019,5/16/2019,11264,20904,SAND,Bbl,201436,7800110,NULL,9067,65.6,60,47.7916305,-102.998227
33053086130000,35111,ABRAXAS PETROLEUM CORP.,LILLIBRIDGE 20-17-  14H,MCKENZIE,BAKKEN,6/17/2019,5/16/2019,11177,20817,SAND,Bbl,188461,7800940,NULL,9027,65.9,60,47.79163122,-102.9980967
33053086120000,35110,ABRAXAS PETROLEUM CORP.,LILLIBRIDGE 20-17-  13H,MCKENZIE,BAKKEN,6/16/2019,5/16/2019,11258,20898,SAND,Bbl,202564,7735840,NULL,9092,64,60,47.79163195,-102.9979663
33025035250000,35109,"CONTINENTAL RESOURCES, INC.",MORRIS  7-26H2,DUNN,BAKKEN,4/10/2019,11/3/2018,11705,18713,SAND,Bbl,181534,7718940,NULL,9440,84,29,47.52590087,-102.8737033
33025035240000,35108,"CONTINENTAL RESOURCES, INC.",CARSON PEAK 6-35H1,DUNN,BAKKEN,1/19/2019,11/26/2018,11877,26152,SAND,Bbl,467006,20667474,NULL,9548,82,54,47.52592417,-102.8742462
33105048620000,35106,"KRAKEN OPERATING, LLC",GOODMAN LW 36-25  #2H,WILLIAMS,BAKKEN,1/3/2019,10/9/2018,11485,21418,SAND,Bbl,245361,15306685,NULL,9312,81.6,60,48.19692021,-103.8729187
33105048610000,35105,"KRAKEN OPERATING, LLC",GOODMAN 36-25  #3H,WILLIAMS,BAKKEN,1/2/2019,10/9/2018,10793,20857,SAND,Bbl,244928,15305680,NULL,9329,82,60,48.19691976,-103.8727832
33105048600000,35104,"KRAKEN OPERATING, LLC",GOODMAN 36-25  #4H,WILLIAMS,BAKKEN,1/2/2019,10/10/2018,10778,20849,SAND,Bbl,250095,15233925,NULL,9518,82.1,60,48.19691932,-103.8726476
33105048590000,35103,"KRAKEN OPERATING, LLC",GOODMAN 36-25  #5H,WILLIAMS,BAKKEN,12/10/2018,11/1/2018,10907,20978,SAND,Bbl,254623,15332170,NULL,9545,81.8,60,48.19691887,-103.872512
33053086090000,35099,OASIS PETROLEUM NORTH AMERICA LLC,KELLOGG FEDERAL 5297 12-30 7B,MCKENZIE,BAKKEN,9/4/2019,7/6/2019,11490,21533,SAND,Bbl,323419,7957165,NULL,9926,60,40,47.96247195,-103.1466542
33053086080000,35098,OASIS PETROLEUM NORTH AMERICA LLC,KELLOGG FEDERAL 5297 12-30 6T,MCKENZIE,BAKKEN,9/3/2019,7/6/2019,11523,21483,SAND,Bbl,216161,3997515,NULL,9171,87,40,47.96256241,-103.1466542
33061042480000,35097,"LIBERTY RESOURCES MANAGEMENT COMPANY, LLC",STANLEY W  158-91-30-6-1TFHX,MOUNTRAIL,BAKKEN,12/6/2018,11/23/2018,9675,25012,SAND,Bbl,292830,16000006,15,9067,90,40,48.4875222,-102.4921095
33061042470000,35096,"LIBERTY RESOURCES MANAGEMENT COMPANY, LLC",STANLEY W  158-91-30-6-1MBHX,MOUNTRAIL,BAKKEN,11/29/2018,11/23/2018,9674,25075,SAND,Bbl,296947,16000000,15,8073,91.4,40,48.48752206,-102.4919651
33053086070000,35095,"HESS BAKKEN INVESTMENTS II, LLC",AN-BOHMBACH-  153-94-2734H-6,MCKENZIE,SANISH,4/21/2019,9/7/2018,11138,20962,SAND,Bbl,191668,9860009,NULL,9031,75,35,48.05332276,-102.7561715
33053086060000,35094,"HESS BAKKEN INVESTMENTS II, LLC",AN-BOHMBACH-  153-94-2734H-7,MCKENZIE,SANISH,4/23/2019,2/2/2019,11250,20559,SAND,Bbl,121487,4988382,NULL,9010,61.5,40,48.05332307,-102.7563066
33053086050000,35093,"HESS BAKKEN INVESTMENTS II, LLC",AN-BOHMBACH-  153-94-2734H-8,MCKENZIE,SANISH,4/5/2019,2/2/2019,11084,20749,SAND,Bbl,191584,9913173,NULL,9323,90.6,35,48.05332339,-102.7564416
33053086040000,35092,"HESS BAKKEN INVESTMENTS II, LLC",AN-BOHMBACH-  153-94-2734H-9,MCKENZIE,SANISH,4/27/2019,3/7/2019,11255,20763,SAND,Bbl,192101,9971002,NULL,9048,90.1,35,48.0533237,-102.7565767
33053086030000,35091,"HESS BAKKEN INVESTMENTS II, LLC",AN-BOHMBACH-  153-94-2734H-10,MCKENZIE,SANISH,5/3/2019,3/7/2019,11360,20885,SAND,Bbl,119740,4974561,NULL,9034,90.1,35,48.05332402,-102.7567117
33061042460000,35090,"LIBERTY RESOURCES MANAGEMENT COMPANY, LLC",AZ  158-93-13-24-4MBH,MOUNTRAIL,BAKKEN,3/6/2019,2/10/2019,9930,20084,SAND,Bbl,193830,10800000,15,9102,83,27,48.51646563,-102.623733
33061042450000,35089,"LIBERTY RESOURCES MANAGEMENT COMPANY, LLC",NM  158-92-18-19-1MBH,MOUNTRAIL,BAKKEN,2/21/2019,2/16/2019,9823,19950,SAND,Bbl,182437,10800000,15,9016,94.6,27,48.51646646,-102.6234441
33061042440000,35088,"LIBERTY RESOURCES MANAGEMENT COMPANY, LLC",CO  158-92-7-6-2TFH,MOUNTRAIL,BAKKEN,2/28/2019,2/16/2019,9847,20138,SAND,Bbl,182335,10800000,15,9233,94.5,27,48.51646605,-102.6235885
33025035180000,35082,"CONTINENTAL RESOURCES, INC.",MORRIS  8-26H1,DUNN,BAKKEN,1/11/2019,11/13/2018,11552,18618,SAND,Bbl,248200,11311419,NULL,9440,82,26,47.52589402,-102.873521
33025035170000,35081,"CONTINENTAL RESOURCES, INC.",CARSON PEAK  8-35H2,DUNN,BAKKEN,1/13/2019,11/25/2018,11678,25320,SAND,Bbl,307507,14209296,NULL,9392,81,52,47.52590774,-102.8738816
33025035160000,35080,"CONTINENTAL RESOURCES, INC.",CARSON PEAK  7-35H,DUNN,BAKKEN,1/16/2019,11/27/2018,11539,25248,SAND,Bbl,454037,20619746,NULL,9377,81,53,47.52591733,-102.8740639
33053086000000,35077,"IRON OIL OPERATING, LLC",BEAR BUTTE  2-6-7H,MCKENZIE,BAKKEN,11/15/2018,10/8/2018,11304,21300,SAND,Bbl,229380,9790560,15,8534,56,42,47.67375034,-103.609588
33053085960000,35073,"IRON OIL OPERATING, LLC",ELLSWORTH  2-31-30H,MCKENZIE,BAKKEN,11/1/2018,10/3/2018,11237,21400,SAND,Bbl,221615,8710417,15,8854,55,34,47.67350218,-103.5223823
33053085950000,35072,WHITING OIL AND GAS CORPORATION,STENEHJEM FEDERAL  24-7H,MCKENZIE,BAKKEN,1/22/2019,1/12/2019,11518,21082,SAND,Bbl,147141,8004141,15,8959,55.7,42,47.73332484,-103.2763514
33053085930000,35070,WHITING OIL AND GAS CORPORATION,STENEHJEM FEDERAL  24-7-2H,MCKENZIE,BAKKEN,1/25/2019,1/12/2019,11560,20649,SAND,Bbl,148123,6007675,15,8970,55.5,41,47.73332519,-103.2759853
33053085920000,35068,ENERPLUS RESOURCES USA CORPORATION,TERRAPIN 152-94-33D-28H,MCKENZIE,SANISH,9/4/2019,8/14/2019,10792,20962,SAND,Bbl,471265,20056914,15,9853,71,44,47.936168,-102.716189
33053085910000,35067,ENERPLUS RESOURCES USA CORPORATION,BOX 152-94-33D-28H-TF2,MCKENZIE,SANISH,9/4/2019,8/14/2019,10792,20962,SAND,Bbl,318693,14570344,15,9644,80,42,47.93607206,-102.7161895
33053085900000,35066,ENERPLUS RESOURCES USA CORPORATION,PAINTED 152-94-33D-28H,MCKENZIE,SANISH,9/4/2019,7/25/2019,11052,20965,SAND,Bbl,371859,18279200,15,9543,73,42,47.93597612,-102.71619
33053085890000,35065,ENERPLUS RESOURCES USA CORPORATION,MAP 152-94-33D-28H-TF1,MCKENZIE,SANISH,9/13/2019,7/25/2019,11065,21065,SAND,Bbl,303135,15580600,15,9531,75,43,47.93588017,-102.7161905
33053085880000,35064,ENERPLUS RESOURCES USA CORPORATION,HAWKSBILL 152-94-33D-28H,MCKENZIE,SANISH,9/5/2019,7/11/2019,11138,20208,SAND,Bbl,306789,13703680,15,9658,74,39,47.93578423,-102.716191
33053085870000,35063,ENERPLUS RESOURCES USA CORPORATION,TORTOISE 152-94-33C-28H-TF1,MCKENZIE,SANISH,9/6/2019,7/10/2019,11061,20808,SAND,Bbl,252488,10060680,15,9409,73,42,47.93568828,-102.7161915
33053085860000,35062,ENERPLUS RESOURCES USA CORPORATION,LEATHERBACK 152-94-33C-28H,MCKENZIE,SANISH,9/13/2019,7/10/2019,11023,20931,SAND,Bbl,249811,10024340,15,9401,72,42,47.93559234,-102.716192
33105048580000,35054,"CONTINENTAL RESOURCES, INC.",RADER  4-24HSL1,WILLIAMS,BAKKEN,4/25/2019,3/13/2019,11445,21620,SAND,Bbl,138962,6520489,NULL,9322,80,44,48.15217849,-103.4948314
33105048570000,35053,"CONTINENTAL RESOURCES, INC.",COLLISON   13-23HSL,WILLIAMS,BAKKEN,4/27/2019,3/13/2019,11308,21508,SAND,Bbl,196249,10433785,NULL,9227,81,44,48.15230184,-103.4948314
33053085780000,35052,WHITING OIL AND GAS CORPORATION,LASSEY 21-22-2H,MCKENZIE,BAKKEN,9/27/2019,9/27/2019,10470,21351,SAND,Bbl,156905,6122560,15,9289,55.8,39,47.9634312,-103.8523227
33053085770000,35051,WHITING OIL AND GAS CORPORATION,LASSEY 21-22H,MCKENZIE,BAKKEN,10/1/2019,9/17/2019,10970,20954,SAND,Bbl,154585,6122020,15,9124,56.3,39,47.96346353,-103.8524985
33053085690000,35043,"HESS BAKKEN INVESTMENTS II, LLC",BB-CHARLIE LOOMER-  150-95-0718H-10,MCKENZIE,BAKKEN,10/16/2019,7/30/2019,11040,21007,SAND,Bbl,181700,9833728,NULL,9356,90.5,30,47.83050299,-102.8794073
33053085680000,35042,"HESS BAKKEN INVESTMENTS II, LLC",BB-CHARLIE LOOMER-  150-95-0718H-9,MCKENZIE,BAKKEN,10/20/2019,7/30/2019,11038,18608,SAND,Bbl,126778,7194693,NULL,9387,95.6,22,47.83050211,-102.8795417
33053085670000,35041,"HESS BAKKEN INVESTMENTS II, LLC",BB-CHARLIE LOOMER-  150-95-0718H-8,MCKENZIE,BAKKEN,10/24/2019,7/31/2019,11091,21113,SAND,Bbl,165135,9820478,NULL,9400,92.6,30,47.83050123,-102.8796762
